,name,review_count,rating,transactions,price,latitude,longitude,alias,address1,city,zip_code,display_address
0,Antonio's Trattoria,910,4.5,"['pickup', 'delivery']",$$,40.854131,-73.886601,italian,2370 Belmont Ave,Bronx,10458,"['2370 Belmont Ave', 'Bronx, NY 10458']"
1,New York Botanical Garden,829,4.5,[],,40.8624081105702,-73.8769194420523,gardens,2900 Southern Blvd,Bronx,10458,"['2900 Southern Blvd', 'Bronx, NY 10458']"
2,Bronx Zoo,1182,4.0,[],,40.8486241952854,-73.8825604705517,zoos,2300 Southern Blvd,Bronx,10460,"['2300 Southern Blvd', 'Bronx, NY 10460']"
3,Taqueria Tlaxcalli,674,4.5,"['pickup', 'delivery']",$$,40.83624,-73.854962,mexican,2103 Starling Ave,Bronx,10462,"['2103 Starling Ave', 'Bronx, NY 10462']"
4,Trattoria Zero Otto Nove,820,4.0,['delivery'],$$,40.854779,-73.888474,italian,2357 Arthur Ave,Bronx,10458,"['2357 Arthur Ave', 'Bronx, NY 10458']"
5,Bronx Alehouse,869,4.0,"['pickup', 'delivery']",$$,40.8846317,-73.899705,tradamerican,216 W 238th St,Bronx,10463,"['216 W 238th St', 'Bronx, NY 10463']"
6,Casa Della Mozzarella Italian Deli,212,5.0,['delivery'],$$,40.85533,-73.88742,delis,604 E 187th St,Bronx,10458,"['604 E 187th St', 'Bronx, NY 10458']"
7,Com Tam Ninh Kieu,474,4.0,"['pickup', 'delivery']",$$,40.86702,-73.8982,vietnamese,2641 Jerome Ave,Bronx,10468,"['2641 Jerome Ave', 'Bronx, NY 10468']"
8,Havana Cafe,894,4.0,"['pickup', 'delivery']",$$,40.8379,-73.83437,cuban,3151 E Tremont Ave,Bronx,10461,"['3151 E Tremont Ave', 'Bronx, NY 10461']"
9,Joe's Italian Deli,152,5.0,"['pickup', 'delivery']",$$,40.8544073,-73.8848751,delis,685 E 187th St,Bronx,10458,"['685 E 187th St', 'Bronx, NY 10458']"
10,Madonia Brothers Bakery,293,4.5,[],$,40.85438,-73.8884099,bakeries,2348 Arthur Ave,Bronx,10458,"['2348 Arthur Ave', 'Bronx, NY 10458']"
11,Travesias,568,4.0,"['pickup', 'delivery']",$$,40.8243203,-73.8203809,latin,3834 E Tremont Ave,Bronx,10465,"['3834 E Tremont Ave', 'Bronx, NY 10465']"
12,Kingsbridge Social Club,246,4.5,"['pickup', 'delivery']",$$,40.88455,-73.90194,pizza,3625 Kingsbridge Ave,Bronx,10463,"['3625 Kingsbridge Ave', 'Bronx, NY 10463']"
13,La Morada,172,4.5,"['pickup', 'delivery']",$$,40.810552,-73.92142,mexican,308 Willis Ave,Bronx,10454,"['308 Willis Ave', 'Bronx, NY 10454']"
14,The Bronx Public,534,4.0,"['pickup', 'delivery']",$$,40.87827,-73.90341,sportsbars,170 W 231st St,Bronx,10463,"['170 W 231st St', 'Bronx, NY 10463']"
15,La Masa,481,4.0,"['pickup', 'delivery']",$$,40.84800080701825,-73.85594720000276,colombian,1000 Morris Park Ave,Bronx,10462,"['1000 Morris Park Ave', 'Bronx, NY 10462']"
16,Levain Bakery,8794,4.5,[],$$,40.779961,-73.980299,bakeries,167 W 74th St,New York,10023,"['167 W 74th St', 'New York, NY 10023']"
17,Louie & Ernie's Pizza,331,4.5,['delivery'],$,40.838288,-73.828563,pizza,1300 Crosby Ave,Bronx,10461,"['1300 Crosby Ave', 'Bronx, NY 10461']"
18,Mon Amour Coffee & Wine,246,4.5,"['pickup', 'delivery']",$$,40.8847906,-73.9001434,coffee,234 W 238th St,Bronx,10463,"['234 W 238th St', 'Bronx, NY 10463']"
19,Patricia's,560,4.0,"['pickup', 'delivery']",$$,40.84912,-73.8533099,pizza,1082 Morris Park Ave,Bronx,10461,"['1082 Morris Park Ave', 'Bronx, NY 10461']"
20,Tacos El Bronco II,167,4.5,"['pickup', 'delivery']",$,40.85453,-73.86769,mexican,White Plains Rd & Lydig Ave,Bronx,10462,"['White Plains Rd & Lydig Ave', 'Bronx, NY 10462']"
21,Aoyu Sushi,264,4.5,"['pickup', 'delivery']",$$,40.8859634,-73.9096909,japanese,3532 A Johnson Ave,Bronx,10463,"['3532 A Johnson Ave', 'Bronx, NY 10463']"
22,Porto Salvo,172,4.5,['delivery'],$$,40.82368,-73.91294,italian,424 E 161st St,Bronx,10451,"['424 E 161st St', 'Bronx, NY 10451']"
23,Leche Y Miel Restaurant,313,4.0,"['pickup', 'delivery']",$$,40.88373,-73.90183,comfortfood,5761 Broadway,Bronx,10463,"['5761 Broadway', 'Bronx, NY 10463']"
24,The Original Crab Shanty Restaurant,803,3.5,[],$$,40.848673,-73.787163,seafood,361 City Island Ave,Bronx,10464,"['361 City Island Ave', 'Bronx, NY 10464']"
25,Johnny's Reef Restaurant,578,4.0,[],$$,40.8377099599469,-73.7826705251312,seafood,2 City Island Ave,Bronx,10464,"['2 City Island Ave', 'Bronx, NY 10464']"
26,Gino's Pastry Shop,113,4.5,[],$$,40.855648,-73.88819,bakeries,580 E 187th St,Bronx,10458,"['580 E 187th St', 'Bronx, NY 10458']"
27,Kingston Tropical Bakery,164,4.5,['delivery'],$,40.88873,-73.85974,bakeries,4000 White Plains Rd,Bronx,10466,"['4000 White Plains Rd', 'Bronx, NY 10466']"
28,Suyo Gastrofusion,246,4.5,[],$$$,40.84061,-73.91825,asianfusion,1401 Plaza Dr,Bronx,10452,"['1401 Plaza Dr', 'Bronx, NY 10452']"
29,The Met Cloisters,704,4.5,[],,40.8649766228154,-73.9315730494599,museums,99 Margaret Corbin Dr,New York,10040,"['99 Margaret Corbin Dr', 'Fort Tryon Park', 'New York, NY 10040']"
30,Mike's Deli Arthur Avenue,245,4.0,[],$$,40.85416,-73.88817,catering,2344 Arthur Ave,Bronx,10458,"['2344 Arthur Ave', 'Bronx, NY 10458']"
31,S&S Cheesecake,191,4.5,"['pickup', 'delivery']",$$,40.8847182244062,-73.8995528966188,desserts,222 W 238th St,Bronx,10463,"['222 W 238th St', 'Bronx, NY 10463']"
32,Charlies Bar & Kitchen,366,4.0,"['pickup', 'delivery']",$$,40.807874991887,-73.9291545436554,cocktailbars,112 Lincoln Ave,Bronx,10454,"['112 Lincoln Ave', 'Bronx, NY 10454']"
33,Dominick's Restaurant,396,4.0,[],$$,40.85434,-73.889,italian,2335 Arthur Ave,Bronx,10458,"['2335 Arthur Ave', 'Bronx, NY 10458']"
34,Ceetay,352,4.0,"['pickup', 'delivery']",$$,40.807149,-73.927612,sushi,129 Alexander Ave,Bronx,10454,"['129 Alexander Ave', 'Bronx, NY 10454']"
35,The Metropolitan Museum of Art,3102,4.5,[],,40.779449,-73.963245,artmuseums,1000 5th Ave,New York,10028,"['1000 5th Ave', 'New York, NY 10028']"
36,Pugsley's Pizza,174,4.5,"['pickup', 'delivery']",$,40.85881,-73.88475,pizza,590 E 191st St,Bronx,10458,"['590 E 191st St', 'Bronx, NY 10458']"
37,Conti's Pastry Shoppe,284,4.0,"['pickup', 'delivery']",$$,40.845635,-73.862791,bakeries,786 Morris Park Ave,Bronx,10462,"['786 Morris Park Ave', 'Bronx, NY 10462']"
38,City Island Lobster House,664,3.5,[],$$$,40.8567604777185,-73.791118271164,seafood,691 Bridge St,Bronx,10464,"['691 Bridge St', 'Bronx, NY 10464']"
39,Hungry Bird,223,4.5,"['pickup', 'delivery']",$$,40.82847,-73.91669,indpak,980 Morris Ave,Bronx,10456,"['980 Morris Ave', 'Bronx, NY 10456']"
40,Da Franco & Tony Ristorante,112,4.5,"['pickup', 'delivery']",$$,40.8436584,-73.8360596,italian,2815 Middletown Rd,Bronx,10461,"['2815 Middletown Rd', 'Bronx, NY 10461']"
41,Beatstro,449,4.0,"['pickup', 'delivery', 'restaurant_reservation']",$$,40.80737,-73.92752,tradamerican,135 Alexander Ave,Bronx,10454,"['135 Alexander Ave', 'Bronx, NY 10454']"
42,Full Moon Pizzeria,313,4.0,"['pickup', 'delivery']",$,40.85536,-73.88758,pizza,600 E 187th St,Bronx,10458,"['600 E 187th St', 'Bronx, NY 10458']"
43,Roberto's,274,4.0,['delivery'],$$$,40.85372,-73.88834,italian,603 Crescent Ave,Bronx,10458,"['603 Crescent Ave', 'Bronx, NY 10458']"
44,Fish N' Ting,312,4.0,"['pickup', 'delivery']",$$,40.885723,-73.829075,caribbean,4063 Boston Rd,Bronx,10466,"['4063 Boston Rd', 'Bronx, NY 10466']"
45,Tino's Delicatessen,201,4.0,"['pickup', 'delivery']",$$,40.855761,-73.887075,delis,2410 Arthur Ave,Bronx,10458,"['2410 Arthur Ave', 'Bronx, NY 10458']"
46,Yo-Burger,265,4.0,['delivery'],$$,40.88739,-73.90695,burgers,3726 Riverdale Ave,Bronx,10463,"['3726 Riverdale Ave', 'Bronx, NY 10463']"
47,The Last Stop,114,4.5,['delivery'],$$,40.88976,-73.89854,bars,5977 Broadway,Bronx,10471,"['5977 Broadway', 'Bronx, NY 10471']"
48,Estrellita Poblana,284,4.0,"['pickup', 'delivery']",$$,40.83446,-73.85084,mexican,2231 Westchester Ave,Bronx,10462,"['2231 Westchester Ave', 'Bronx, NY 10462']"
49,The Cafe at Wave Hill,134,4.5,['delivery'],,40.900136527179335,-73.91254847266828,venues,675 W 249th St,Bronx,10471,"['675 W 249th St', 'Inside the Wave Hill House', 'Bronx, NY 10471']"
50,The Halal Guys,9806,4.0,"['pickup', 'delivery']",$,40.761861,-73.979306,foodstands,W 53rd Street And 6th Ave,New York,10019,"['W 53rd Street And 6th Ave', 'New York, NY 10019']"
51,Sam's Pizza,146,4.5,['delivery'],$,40.87939,-73.90601,pizza,232 W 231st St,Bronx,10463,"['232 W 231st St', 'Bronx, NY 10463']"
52,Liebman's Kosher Delicatessen,315,4.0,"['pickup', 'delivery']",$$,40.88548,-73.90951,delis,552 W 235th St,Bronx,10463,"['552 W 235th St', 'Bronx, NY 10463']"
53,Greek Express,234,4.0,['delivery'],$$,40.887465130647726,-73.90755915766862,greek,3733 Riverdale Ave,Bronx,10463,"['3733 Riverdale Ave', 'Bronx, NY 10463']"
54,F & J Pine Restaurant,610,3.5,['delivery'],$$,40.848685,-73.862069,italian,1913 Bronxdale Ave,Bronx,10462,"['1913 Bronxdale Ave', 'Bronx, NY 10462']"
55,Lloyd's Carrot Cake,265,4.0,"['pickup', 'delivery']",$,40.894,-73.89666,bakeries,6087 Broadway,Bronx,10471,"['6087 Broadway', 'Bronx, NY 10471']"
56,Arthur Ave Fiasco,127,4.5,"['pickup', 'delivery']",$$,40.854825,-73.887862,italian,2376 Arthur Ave,Bronx,10458,"['2376 Arthur Ave', 'Bronx, NY 10458']"
57,Mottley Kitchen,109,4.5,['pickup'],$$,40.8100856240886,-73.9216868293002,cafes,402 E 140th St,Bronx,10454,"['402 E 140th St', 'Bronx, NY 10454']"
58,Empire Bagels,131,4.5,['delivery'],$,40.8494,-73.83062,bagels,3101 Westchester Ave,Bronx,10461,"['3101 Westchester Ave', 'Bronx, NY 10461']"
59,Kai Sushi Asian Fusion,276,4.0,"['pickup', 'delivery']",$$,40.84362,-73.84565,asianfusion,1475 Williamsbridge Rd,Bronx,10461,"['1475 Williamsbridge Rd', 'Bronx, NY 10461']"
60,Katz's Delicatessen,13441,4.0,"['pickup', 'delivery']",$$,40.722237,-73.9875259,delis,205 E Houston St,New York,10002,"['205 E Houston St', 'New York, NY 10002']"
61,George's Diner & Cafe,220,4.0,[],$,40.8367999,-73.84695,diners,2369 Westchester Ave,Bronx,10462,"['2369 Westchester Ave', 'Bronx, NY 10462']"
62,Enzos of Arthur Avenue,334,4.0,['delivery'],$$,40.854716697326715,-73.8887236,italian,2339 Arthur Ave,Bronx,10458,"['2339 Arthur Ave', 'Bronx, NY 10458']"
63,San Gennaro Trattoria Restaurant Bar,195,4.0,"['pickup', 'delivery']",$$,40.8540465225016,-73.8889484480023,italian,2329 Arthur Ave,West Bronx,10458,"['2329 Arthur Ave', 'West Bronx, NY 10458']"
64,Cerini Coffee & Gifts,76,5.0,['delivery'],$$,40.854,-73.8887,coffee,2334 Arthur Ave,Bronx,10458,"['2334 Arthur Ave', 'Bronx, NY 10458']"
65,Central Park Conservancy,2621,5.0,[],,40.764266,-73.971656,parks,14 E 60th St,New York,10022,"['14 E 60th St', 'New York, NY 10022']"
66,Ippudo NY,10218,4.0,"['pickup', 'delivery']",$$,40.73092,-73.99015,ramen,65 4th Ave,New York,10003,"['65 4th Ave', 'New York, NY 10003']"
67,Sal & Dom's Pastry Shop,104,4.5,['delivery'],$$,40.865162,-73.855157,bakeries,1108 Allerton Ave,Bronx,10469,"['1108 Allerton Ave', 'Bronx, NY 10469']"
68,Chocobar Cortes,101,5.0,"['pickup', 'delivery']",$$,40.80738298601883,-73.92733223139571,chocolate,141 Alexander Ave,South Bronx,10454,"['141 Alexander Ave', 'South Bronx, NY 10454']"
69,Tin Marin,337,4.0,"['pickup', 'delivery']",$$,40.8870296802542,-73.9068375260971,tapasmallplates,3708 Riverdale Ave,Bronx,10463,"['3708 Riverdale Ave', 'Bronx, NY 10463']"
70,Salvatores of Soho,302,4.0,['delivery'],$$,40.8875232,-73.90704,pizza,3738 Riverdale Ave,Bronx,10463,"['3738 Riverdale Ave', 'Bronx, NY 10463']"
71,John & Joe's Pizzeria,181,4.0,['delivery'],$,40.8545949,-73.86578,pizza,749 Lydig Ave,Bronx,10462,"['749 Lydig Ave', 'Bronx, NY 10462']"
72,Fort Tryon Park,266,5.0,[],,40.8634422719479,-73.9324240386486,parks,1 Margaret Corbin Dr,New York,10040,"['1 Margaret Corbin Dr', 'New York, NY 10040']"
73,Clinton Hall,199,4.0,"['pickup', 'delivery']",$$,40.85735,-73.88574,beergardens,601 E 189th St,Bronx,10458,"['601 E 189th St', 'Bronx, NY 10458']"
74,Artuso Pastry Shop,176,4.0,['delivery'],$$,40.85416,-73.885124,bakeries,670 E 187th St,Bronx,10458,"['670 E 187th St', 'Bronx, NY 10458']"
75,Bibble & Sip,5202,4.5,"['pickup', 'delivery']",$$,40.7628355,-73.98518009478293,coffee,253 W 51st St,New York,10019,"['253 W 51st St', 'New York, NY 10019']"
76,ÇKA KA QËLLU,104,4.5,"['pickup', 'delivery']",$$,40.8538017786913,-73.8882422081079,modern_european,2321 Hughes Ave,Bronx,10458,"['2321 Hughes Ave', 'Bronx, NY 10458']"
77,Zona De Cuba,655,3.5,"['pickup', 'delivery']",$$$,40.8188782,-73.9265215,cuban,558 Grand Concourse,Bronx,10451,"['558 Grand Concourse', 'Bronx, NY 10451']"
78,Taverna Kyclades,2496,4.0,"['pickup', 'delivery']",$$,40.77444,-73.90786,seafood,3601 Ditmars Blvd,Astoria,11105,"['3601 Ditmars Blvd', 'Astoria, NY 11105']"
79,New York Pizza,122,4.5,['delivery'],$$,31.086427,-97.753939,pizza,701 W Elms Rd,Killeen,76542,"['701 W Elms Rd', 'Ste 300', 'Killeen, TX 76542']"
80,Dinosaur Bar-B-Que,3223,4.0,"['pickup', 'delivery']",$$,40.818098338924,-73.9608729269837,bbq,700 W 125th St,New York,10027,"['700 W 125th St', 'New York, NY 10027']"
81,Bronx Drafthouse,221,4.0,"['pickup', 'delivery']",$$,40.8278536,-73.9245554,newamerican,884 Gerard Ave,Bronx,10452,"['884 Gerard Ave', 'Bronx, NY 10452']"
82,Jacob's Pickles,4766,4.0,"['pickup', 'delivery']",$$,40.7866504411994,-73.9755284786224,comfortfood,509 Amsterdam Ave,New York,10024,"['509 Amsterdam Ave', 'New York, NY 10024']"
83,"Sal, Kris, & Charlie's Deli",1263,4.5,['delivery'],$$,40.773326878163,-73.9113807678223,delis,33-12 23rd Ave,Astoria,11105,"['33-12 23rd Ave', 'Astoria, NY 11105']"
84,Jake's Steakhouse - Bronx,249,4.0,['delivery'],$$$,40.891706,-73.897689,steak,6031 Broadway,Bronx,10471,"['6031 Broadway', 'Bronx, NY 10471']"
85,Mario's Restaurant,292,4.0,"['pickup', 'delivery']",$$,40.8542,-73.88857,italian,2342 Arthur Ave,Bronx,10458,"['2342 Arthur Ave', 'Bronx, NY 10458']"
86,Sammys Fish Box,897,3.0,[],$$$,40.83905665466202,-73.78371957251213,seafood,41 City Island Ave,Bronx,10464,"['41 City Island Ave', 'Bronx, NY 10464']"
87,Los Tacos No.1,3338,4.5,['delivery'],$,40.7425547,-74.0060838,tacos,75 9th Ave,New York,10011,"['75 9th Ave', 'New York, NY 10011']"
88,Haidilao Hotpot Flushing,1663,5.0,['delivery'],$$$,40.76099,-73.827853,hotpot,138-23 39th Ave,Flushing,11354,"['138-23 39th Ave', 'Flushing, NY 11354']"
89,City Tamale,73,4.5,"['pickup', 'delivery']",$,40.8102546,-73.8846809,mexican,1316 Oak Point Ave,Bronx,10474,"['1316 Oak Point Ave', 'Bronx, NY 10474']"
90,Best Bagel & Coffee,3856,4.5,"['pickup', 'delivery']",$,40.7522683,-73.9910861,bagels,225 W 35th St,New York,10001,"['225 W 35th St', 'New York, NY 10001']"
91,Sabrosura Restaurant,283,3.5,"['pickup', 'delivery']",$$,40.832073,-73.850759,chinese,1200 Castle Hill Ave,Bronx,10462,"['1200 Castle Hill Ave', 'Bronx, NY 10462']"
92,Havana Cafe,234,4.0,"['pickup', 'delivery']",$$,40.8331000193312,-73.8516100868583,spanish,1247 Castle Hill Ave,Bronx,10462,"['1247 Castle Hill Ave', 'Bronx, NY 10462']"
93,The Boogie Down Grind,62,4.5,"['pickup', 'delivery']",$,40.81858,-73.8888998329639,coffee,868 Hunts Point Ave,Bronx,10474,"['868 Hunts Point Ave', 'Bronx, NY 10474']"
94,Dukagjini Burek,80,4.5,['delivery'],$,40.85437,-73.86532,bakeries,758 Lydig Ave,Bronx,10462,"['758 Lydig Ave', 'Bronx, NY 10462']"
95,Archie's Tap & Table,99,4.5,[],$$,40.8531112670898,-73.7894973754883,newamerican,536 City Island Ave,Bronx,10464,"['536 City Island Ave', 'Bronx, NY 10464']"
96,LoveMama,5878,4.5,"['pickup', 'restaurant_reservation', 'delivery']",$$,40.730408722512074,-73.98612673033213,thai,174 2nd Ave,New York,10003,"['174 2nd Ave', 'New York, NY 10003']"
97,Xochimilco Family Restaurant,112,4.5,"['pickup', 'delivery']",$$,40.8185645,-73.9168277,mexican,653 Melrose Ave,Bronx,10455,"['653 Melrose Ave', 'Bronx, NY 10455']"
98,Van Cortlandt Park ,80,4.5,[],,40.88473994173605,-73.89050710000268,parks,80 Van Cortlandt Park S,Bronx,10463,"['80 Van Cortlandt Park S', 'Bronx, NY 10463']"
99,CHOCnyc,197,5.0,['delivery'],$$,40.8683358542711,-73.9185419306159,desserts,4996 Broadway,New York,10034,"['4996 Broadway', 'New York, NY 10034']"
100,Arties Steak & Seafood,289,4.0,"['pickup', 'delivery']",$$,40.84964,-73.78706,seafood,394 City Island Ave,Bronx,10464,"['394 City Island Ave', 'Bronx, NY 10464']"
101,Trattoria Tra di Noi,162,4.0,['delivery'],$$,40.85493,-73.8869,italian,622 East 187th St,Bronx,10458,"['622 East 187th St', 'Bronx, NY 10458']"
102,An Beal Bocht Cafe,141,4.0,['delivery'],$$,40.88738,-73.90498,irish,445 W 238th St,Bronx,10463,"['445 W 238th St', 'Bronx, NY 10463']"
103,Thai Villa,4050,4.5,"['pickup', 'delivery']",$$,40.73902,-73.99065,thai,5 E 19th St,New York,10003,"['5 E 19th St', 'G Floor', 'New York, NY 10003']"
104,Ez Grill NYC,143,4.0,"['pickup', 'delivery']",$,40.8543220213677,-73.8641628382638,mediterranean,790 Lydig Ave,Bronx,10462,"['790 Lydig Ave', 'Bronx, NY 10462']"
105,La Casa Del Caffe,71,4.5,['delivery'],$,40.84855,-73.8549,coffee,1036 Morris Park Ave,Bronx,10461,"['1036 Morris Park Ave', 'Bronx, NY 10461']"
106,Amy Ruth's,2792,4.0,"['pickup', 'delivery']",$$,40.80248,-73.95038,southern,113 W 116th St,New York,10026,"['113 W 116th St', 'New York, NY 10026']"
107,The Bronx Burger House,249,4.0,[],$$,40.904658,-73.896536,burgers,5816 Mosholu Ave,Bronx,10471,"['5816 Mosholu Ave', 'Bronx, NY 10471']"
108,Estrellita Poblana IV,192,4.0,['delivery'],$$,40.84221,-73.84381,mexican,45 Westchester Sq,Bronx,10461,"['45 Westchester Sq', 'Bronx, NY 10461']"
109,Jimmy's Grand Cafe,357,3.5,"['pickup', 'delivery']",$$,40.827751,-73.850389,diners,1001 Castle Hill Ave,Bronx,10472,"['1001 Castle Hill Ave', 'Bronx, NY 10472']"
110,Green Juice Cafe,216,5.0,['delivery'],$,40.85188,-73.9346599,sandwiches,4316 Broadway,New York,10033,"['4316 Broadway', 'New York, NY 10033']"
111,Estrellita Poblana III,172,4.0,[],$$,40.853828,-73.888672,mexican,2328 Arthur Ave,Bronx,10458,"['2328 Arthur Ave', 'Ste 5', 'Bronx, NY 10458']"
112,Emilia's Restaurant,203,4.0,['delivery'],$$,40.85415,-73.88894,italian,2331 Arthur Ave,Bronx,10458,"['2331 Arthur Ave', 'Bronx, NY 10458']"
113,Ajo & Oregano,427,3.5,"['pickup', 'delivery']",$$,40.83953,-73.86364,dominican,1556 White Plains Rd,Bronx,10462,"['1556 White Plains Rd', 'Bronx, NY 10462']"
114,Mitsuwa Marketplace,1769,4.5,[],$$,40.8158107608922,-73.9801246070119,japanese,595 River Rd,Edgewater,07020,"['595 River Rd', 'Edgewater, NJ 07020']"
115,Nan Xiang Xiao Long Bao,4032,4.0,"['pickup', 'delivery']",$$,40.75924,-73.8326,shanghainese,39-16 Prince St,Flushing,11354,"['39-16 Prince St', 'Ste 104', 'Flushing, NY 11354']"
116,Patricia's Of Tremont,270,4.0,"['pickup', 'delivery']",$$,40.8231315612793,-73.8192596435547,pizza,3883 E Tremont Ave,Bronx,10465,"['3883 E Tremont Ave', 'Bronx, NY 10465']"
117,Gerbasi Ristorante,186,4.0,"['pickup', 'delivery']",$$,40.855704054640576,-73.88741072750854,italian,2389 Arthur Ave,Bronx,10458,"['2389 Arthur Ave', 'Bronx, NY 10458']"
118,Landin Mac & Cheese,143,4.0,"['pickup', 'delivery']",$,40.8200475,-73.9161737,pizza,701 Melrose Ave,Bronx,10455,"['701 Melrose Ave', 'Bronx, NY 10455']"
119,Soup Dumpling Plus,1100,4.5,"['pickup', 'delivery']",$$,40.84757,-73.9706099,shanghainese,1550 Lemoine Ave,Fort Lee,07024,"['1550 Lemoine Ave', 'Ste 109', 'Fort Lee, NJ 07024']"
120,Hudson Garden Grill,182,4.0,['delivery'],$$,40.86544744270648,-73.88154800211242,newamerican,2900 Southern Blvd,Bronx,10458,"['2900 Southern Blvd', 'Bronx, NY 10458']"
121,Flame,134,4.0,"['pickup', 'restaurant_reservation']",$$$,40.882742,-73.901366,asianfusion,5740 Broadway,Bronx,10463,"['5740 Broadway', 'Unit 5', 'Bronx, NY 10463']"
122,Salsa Con Fuego,753,3.0,"['pickup', 'delivery']",$$,40.86227,-73.91149,bars,2297 Cedar Ave,Bronx,10468,"['2297 Cedar Ave', 'Bronx, NY 10468']"
123,Frank's Pizzeria,111,4.5,"['pickup', 'delivery']",$,40.8435944773229,-73.8359653694324,pizza,2823 Middletown Rd,Bronx,10461,"['2823 Middletown Rd', 'Bronx, NY 10461']"
124,Michaelangelo's Little Italy,234,3.5,"['pickup', 'delivery']",$$,40.8573321267268,-73.8862630999689,lounges,2477 Arthur Ave,Bronx,10458,"['2477 Arthur Ave', 'Bronx, NY 10458']"
125,Burger & Lobster - Flatiron NYC,5590,4.0,"['pickup', 'delivery']",$$,40.74007,-73.99344,seafood,39 W 19th St,New York,10011,"['39 W 19th St', 'New York, NY 10011']"
126,Healthy Fresh,99,4.5,"['pickup', 'delivery']",$,40.8487099,-73.85532,breakfast_brunch,1033 Morris Park Ave,Bronx,10461,"['1033 Morris Park Ave', 'Bronx, NY 10461']"
127,Harlem Public,1080,4.0,"['pickup', 'delivery']",$$,40.828717774457,-73.9484412254424,newamerican,3612 Broadway,New York,10031,"['3612 Broadway', 'New York, NY 10031']"
128,Red Rooster Harlem,3500,3.5,[],$$$,40.80815,-73.94488,tradamerican,310 Lenox Ave,New York,10027,"['310 Lenox Ave', 'New York, NY 10027']"
129,Up Thai,2621,4.5,"['pickup', 'delivery']",$$,40.7698275926665,-73.9576330868512,thai,1411 2nd Ave,New York,10021,"['1411 2nd Ave', 'New York, NY 10021']"
130,Picante Picante,170,4.0,"['pickup', 'delivery']",$$,40.8781,-73.903,mexican,156 W 231st St,Bronx,10463,"['156 W 231st St', 'Bronx, NY 10463']"
131,Los Tacos No.1,2192,4.5,['delivery'],$,40.7575067,-73.9877717,tacos,229 W 43rd St,New York,10036,"['229 W 43rd St', 'New York, NY 10036']"
132,Prince Street Pizza,4276,4.5,"['pickup', 'delivery']",$,40.72308755605564,-73.99453001177575,pizza,27 Prince St,New York,10012,"['27 Prince St', 'New York, NY 10012']"
133,Gramercy Tavern,3071,4.5,['delivery'],$$$$,40.73844,-73.98825,newamerican,42 E 20th St,New York,10003,"['42 E 20th St', 'New York, NY 10003']"
134,Pizza Studio,88,4.5,"['pickup', 'delivery']",$,40.8609749,-73.8900679,pizza,444 E. Fordham Rd.,Bronx,10458,"['444 E. Fordham Rd.', 'Bronx, NY 10458']"
135,Beans and Vines,430,4.0,"['pickup', 'delivery']",$$,40.86651,-73.92549,bars,4799 Broadway,Inwood,10034,"['4799 Broadway', 'Inwood, NY 10034']"
136,Emilio's of Morris Park,189,4.0,"['pickup', 'delivery']",$$,40.849121,-73.854675,pizza,1051 Morris Park Ave,Bronx,10461,"['1051 Morris Park Ave', 'Bronx, NY 10461']"
137,The High Line,2448,4.5,[],,40.7396039,-74.00847657515718,parks,820 Washington St,New York,10014,"['820 Washington St', 'New York, NY 10014']"
138,Three Boys From Italy,78,4.5,['delivery'],$,40.87123,-73.866916,pizza,704 Burke Ave,Bronx,10467,"['704 Burke Ave', 'Bronx, NY 10467']"
139,Red Hook Lobster Pound Truck,194,3.5,[],$$,40.76869,-73.90561,streetvendors,Mobile Truck,New York,10009,"['Mobile Truck', 'New York, NY 10009']"
140,Guadalupe Restaurant,688,4.0,"['pickup', 'delivery']",$$,40.86739,-73.92083,mexican,597 W 207th St,New York,10034,"['597 W 207th St', 'New York, NY 10034']"
141,Levain Bakery,787,4.5,['delivery'],$$,40.8049739,-73.9551513,bakeries,2167 Frederick Douglass Blvd,New York,10026,"['2167 Frederick Douglass Blvd', 'New York, NY 10026']"
142,Club A Steakhouse,3074,4.5,"['pickup', 'delivery']",$$$,40.76006,-73.96557,steak,240 E 58th St,New York,10022,"['240 E 58th St', 'New York, NY 10022']"
143,Cocina Chente,207,4.0,"['pickup', 'delivery']",$$,40.88620632793199,-73.9071951348118,mexican,3535 Riverdale Ave,Bronx,10463,"['3535 Riverdale Ave', 'Bronx, NY 10463']"
144,DeLillo Pastry Shop,184,4.0,[],$$,40.85531,-73.8873799,bakeries,606 E 187th St,Bronx,10458,"['606 E 187th St', 'Bronx, NY 10458']"
145,Le Bernardin,2674,4.5,[],$$$$,40.761557,-73.981763,french,155 W 51st St,New York,10019,"['155 W 51st St', 'The Equitable Bldg', 'New York, NY 10019']"
146,Absolute Bagels,1549,4.5,['delivery'],$,40.80251,-73.96745,bakeries,2788 Broadway,New York,10025,"['2788 Broadway', 'New York, NY 10025']"
147,Malecon Restaurant,758,4.0,"['pickup', 'delivery']",$$,40.84651,-73.93882,latin,4141 Broadway,New York,10033,"['4141 Broadway', 'New York, NY 10033']"
148,Feroza's,114,4.0,[],$,40.8712876,-73.8664501,trinidadian,716 Burke Ave,Bronx,10467,"['716 Burke Ave', 'Bronx, NY 10467']"
149,Claudy's Kitchen,73,4.5,"['pickup', 'delivery']",,40.889774,-73.898591,peruvian,5981 Broadway,Bronx,10471,"['5981 Broadway', 'Bronx, NY 10471']"
150,Milk Burger,128,4.0,"['delivery', 'pickup']",$$,40.80357,-73.9201099,burgers,148 Bruckner Blvd,Bronx,10454,"['148 Bruckner Blvd', 'Bronx, NY 10454']"
151,Bocaditos Bistro,431,4.0,"['delivery', 'pickup']",$$$,40.8668498343787,-73.9239908382297,breakfast_brunch,4863 Broadway,New York,10034,"['4863 Broadway', 'New York, NY 10034']"
152,Mexicocina,188,4.0,"['delivery', 'pickup']",$$,40.811884525549,-73.90966713749,mexican,503 Jackson Ave,Bronx,10455,"['503 Jackson Ave', 'Bronx, NY 10455']"
153,Peter Luger,6227,4.0,[],$$$$,40.709945,-73.962478,steak,178 Broadway,Brooklyn,11211,"['178 Broadway', 'Brooklyn, NY 11211']"
154,Trattoria L'incontro,1020,4.5,"['delivery', 'restaurant_reservation', 'pickup']",$$$,40.77648209257472,-73.91059675544598,italian,21-76 31st St,Astoria,11105,"['21-76 31st St', 'Astoria, NY 11105']"
155,Casa Restaurant & Lounge,149,4.0,"['delivery', 'pickup']",$$,40.82904,-73.82429,lounges,3607 E Tremont Ave,Bronx,10465,"['3607 E Tremont Ave', 'Bronx, NY 10465']"
156,Terravita,268,4.5,"['delivery', 'pickup']",$$,40.84807,-73.93803,breakfast_brunch,4193 Broadway,New York,10033,"['4193 Broadway', 'New York, NY 10033']"
157,The Lit. Bar,51,4.5,[],$$,40.80723,-73.92757,bookstores,131 Alexander Ave,Bronx,10454,"['131 Alexander Ave', 'Bronx, NY 10454']"
158,Lexa Bar & Garden,129,4.0,"['delivery', 'pickup']",$$,40.87212,-73.87755,burgers,357 E 204th St,Norwood,10467,"['357 E 204th St', 'Norwood, NY 10467']"
159,Frida's Tacos,84,4.5,"['delivery', 'pickup']",,40.90534,-73.89781,tacos,5786 Mosholu Ave,Bronx,10471,"['5786 Mosholu Ave', 'Bronx, NY 10471']"
160,Monte's Brick Oven,166,4.0,"['delivery', 'pickup']",$$,40.807312,-73.926788,italian,136 Alexander Ave,New York,10454,"['136 Alexander Ave', 'New York, NY 10454']"
161,Shake Shack,5662,4.0,"['delivery', 'pickup']",$$,40.74212,-73.98707,burgers,E 23rd St Madison Ave,New York,10010,"['E 23rd St Madison Ave', 'Madison Square Park', 'New York, NY 10010']"
162,Enzo's of Williamsbridge,137,4.0,['delivery'],$$,40.85413,-73.85412,italian,1998 Williamsbridge Rd,Bronx,10461,"['1998 Williamsbridge Rd', 'Bronx, NY 10461']"
163,Ippudo Westside,3842,4.0,"['delivery', 'pickup']",$$,40.76344,-73.98661,ramen,321 W 51st St,New York,10019,"['321 W 51st St', 'New York, NY 10019']"
164,Flavas International Grill,149,4.0,"['delivery', 'pickup']",$$,40.82704,-73.92511,caribbean,854 Gerard Ave,Bronx,10451,"['854 Gerard Ave', 'Bronx, NY 10451']"
165,Yukka Latin Bistro,184,4.0,"['delivery', 'pickup']",$$,40.906445,-73.903875,latin,5684 Riverdale Ave,Bronx,10471,"['5684 Riverdale Ave', 'Bronx, NY 10471']"
166,Tosca Cafe,468,3.0,"['delivery', 'pickup']",$$$,40.819109,-73.817517,pizza,4038 E Tremont Ave,Bronx,10465,"['4038 E Tremont Ave', 'Bronx, NY 10465']"
167,Anytime Kitchen ,2010,4.5,"['delivery', 'restaurant_reservation', 'pickup']",$$,40.74776270790539,-73.9867793576711,korean,23 W 32nd St,New York,10001,"['23 W 32nd St', 'Fl 3', 'New York, NY 10001']"
168,Zeppieri & Sons Bakery,106,4.0,[],$,40.84692,-73.83177,bakeries,3004 Buhre Ave,Bronx,10461,"['3004 Buhre Ave', 'Bronx, NY 10461']"
169,SOFRA  - Traditional Greek & Albanian cuisine,48,4.5,"['delivery', 'pickup']",$$,40.8545299,-73.85499,greek,2011A Williamsbridge Rd,Bronx,10461,"['2011A Williamsbridge Rd', 'Bronx, NY 10461']"
170,Inwood Farm,662,4.0,"['delivery', 'pickup']",$$,40.872860841400616,-73.91834640216938,coffee,600 W 218th St,New York,10034,"['600 W 218th St', 'New York, NY 10034']"
171,Clinton Street Baking Company,5424,4.0,['delivery'],$$,40.721128,-73.983933,bakeries,4 Clinton St,New York,10002,"['4 Clinton St', 'New York, NY 10002']"
172,H.I.M Ital Health Food Market,46,4.5,['delivery'],$,40.897633,-73.854665,healthmarkets,4374B White Plains Rd,Bronx,10466,"['4374B White Plains Rd', 'Bronx, NY 10466']"
173,Doughnut Plant,3311,4.5,"['delivery', 'pickup']",$$,40.71632,-73.98848,donuts,379 Grand St,New York,10002,"['379 Grand St', 'New York, NY 10002']"
174,Fratelli,96,4.0,"['delivery', 'pickup']",$$,40.862992,-73.8435449,italian,2507 Eastchester Rd,Bronx,10469,"['2507 Eastchester Rd', 'Bronx, NY 10469']"
175,The Thirsty Koala,1170,4.5,"['delivery', 'pickup']",$$,40.774416,-73.908739,australian,35-12 Ditmars Blvd,Astoria,11105,"['35-12 Ditmars Blvd', 'Astoria, NY 11105']"
176,Lechonera La Piraña,40,5.0,[],$,40.8156549792076,-73.9062440022826,foodstands,766 E 152nd St,Bronx,10455,"['766 E 152nd St', 'Bronx, NY 10455']"
177,Ikko Hibachi Sushi Asian Bistro,101,4.0,"['delivery', 'pickup']",,40.821186,-73.818848,asianfusion,3938 E Tremont Ave,Bronx,10465,"['3938 E Tremont Ave', 'Bronx, NY 10465']"
178,Buddakan,4258,4.0,"['delivery', 'pickup']",$$$$,40.7422762672197,-74.0048000961542,chinese,75 9th Ave,New York,10011,"['75 9th Ave', 'New York, NY 10011']"
179,THEP Thai Restaurant,1748,4.5,"['delivery', 'pickup']",$$,40.77078,-73.95727,thai,1439 2nd Ave,New York,10021,"['1439 2nd Ave', 'New York, NY 10021']"
180,Made In Puerto Rico Latin Cuisine,375,3.5,"['delivery', 'pickup']",$$,40.83451,-73.82907,cocktailbars,3363 E Tremont Ave,Bronx,10461,"['3363 E Tremont Ave', 'Bronx, NY 10461']"
181,The Handpulled Noodle,1011,4.0,"['delivery', 'pickup']",$$,40.828384,-73.948674,chinese,3600 Broadway,New York,10031,"['3600 Broadway', 'Ste 3', 'New York, NY 10031']"
182,Tommy's Pizza,135,4.0,['delivery'],$,40.8195671,-73.8173523,pizza,4033 E Tremont Ave,Bronx,10465,"['4033 E Tremont Ave', 'Bronx, NY 10465']"
183,Menya Sandaime,813,4.0,['delivery'],$$,40.849738,-73.9677057,japanese,1638 Parker Ave,Fort Lee,07024,"['1638 Parker Ave', 'Fort Lee, NJ 07024']"
184,Prince Coffee House,132,4.0,[],$$,40.85361,-73.88898,coffee,2306 Arthur Ave,Bronx,10458,"['2306 Arthur Ave', 'Bronx, NY 10458']"
185,Dominique Ansel Bakery,4966,4.0,['delivery'],$$,40.72516,-74.00296,bakeries,189 Spring St,New York,10012,"['189 Spring St', 'New York, NY 10012']"
186,National September 11 Memorial Museum,1471,4.5,[],,40.71144,-74.01301,museums,180 Greenwich St,New York,10007,"['180 Greenwich St', 'New York, NY 10007']"
187,Tibbett Diner,115,4.0,"['delivery', 'pickup']",$,40.88038,-73.90906,diners,3033 Tibbett Ave,Bronx,10463,"['3033 Tibbett Ave', 'Bronx, NY 10463']"
188,Bella Notte,209,4.0,"['delivery', 'pickup']",$$,40.886035,-73.909539,pizza,3524 Johnson Ave,Bronx,10463,"['3524 Johnson Ave', 'Bronx, NY 10463']"
189,Eataly NYC Flatiron,5792,4.0,"['delivery', 'pickup']",$$,40.74200824886595,-73.98993910744127,italian,200 5th Ave,New York,10010,"['200 5th Ave', 'New York, NY 10010']"
190,Tortoise & Hare,69,4.5,"['delivery', 'pickup']",,40.89415,-73.89668,bars,6115 Broadway,Bronx,10471,"['6115 Broadway', 'Bronx, NY 10471']"
191,Seva Indian Cuisine,1348,4.5,"['delivery', 'pickup']",$$,40.76571,-73.91839,indpak,34-11 30th Ave,Astoria,11103,"['34-11 30th Ave', 'Astoria, NY 11103']"
192,Amélie,2779,4.5,"['delivery', 'pickup']",$$$,40.7327,-73.99766,french,22 W 8th St,New York,10011,"['22 W 8th St', 'New York, NY 10011']"
193,Curry & Kebab,97,4.0,"['delivery', 'pickup']",$$,40.8740694334906,-73.8795868679881,halal,3111 Bainbridge Ave,Bronx,10467,"['3111 Bainbridge Ave', 'Bronx, NY 10467']"
194,Del Frisco's Double Eagle Steakhouse,3207,4.0,['delivery'],$$$$,40.759412,-73.982221,steak,1221 Ave Of The Americas,New York,10020,"['1221 Ave Of The Americas', 'New York, NY 10020']"
195,Taiyaki NYC,3101,4.5,"['delivery', 'pickup']",$,40.71789,-73.9988,desserts,119 Baxter St,New York,10013,"['119 Baxter St', 'New York, NY 10013']"
196,Eleven Madison Park,2272,4.5,[],$$$$,40.7416907417333,-73.9872074872255,newamerican,11 Madison Ave,New York,10010,"['11 Madison Ave', 'New York, NY 10010']"
197,Tokyo House,98,4.0,"['delivery', 'pickup']",$$,40.9056206,-73.9040833,japanese,5648 Riverdale Ave,Bronx,10471,"['5648 Riverdale Ave', 'Bronx, NY 10471']"
198,The Black Whale,184,3.5,[],$$,40.846302,-73.786432,newamerican,279 City Island Ave,Bronx,10464,"['279 City Island Ave', 'Bronx, NY 10464']"
199,Moss Cafe,149,4.0,"['delivery', 'pickup']",$$,40.8852583739579,-73.9100218063601,cafes,3260 Johnson Ave,Bronx,10463,"['3260 Johnson Ave', 'Bronx, NY 10463']"
200,Burger Heights,440,4.0,"['delivery', 'pickup']",$,40.85022,-73.93451,burgers,177 Wadsworth Ave,New York,10033,"['177 Wadsworth Ave', 'New York, NY 10033']"
201,Tandoori Place,68,4.5,"['delivery', 'pickup']",$$,40.83597304468253,-73.8536453,indpak,2146 Starling Ave,Bronx,10462,"['2146 Starling Ave', 'Bronx, NY 10462']"
202,Daniel,1722,4.5,"['delivery', 'pickup']",$$$$,40.7667736797858,-73.967607,french,60 E 65th St,New York,10065,"['60 E 65th St', 'New York, NY 10065']"
203,Olio e Più,3159,4.5,"['delivery', 'pickup']",$$,40.733798036104304,-73.99977392649927,pizza,3 Greenwich Ave,New York,10014,"['3 Greenwich Ave', 'New York, NY 10014']"
204,Ricardo Steak House,1269,4.0,[],$$$,40.793509,-73.94066,steak,2145 2nd Ave,New York,10029,"['2145 2nd Ave', 'New York, NY 10029']"
205,Grand Central Terminal,1440,4.5,[],,40.75274192627259,-73.97723946032279,landmarks,89 E 42nd St,New York,10017,"['89 E 42nd St', 'New York, NY 10017']"
206,Bengal Tiger Indian Food,2089,4.5,"['delivery', 'pickup']",$$,40.763167,-73.977131,indpak,58 W 56th St,New York,10019,"['58 W 56th St', 'Fl 2', 'New York, NY 10019']"
207,Addeo Bakers,42,4.5,[],$,40.85443,-73.88723,bakeries,2372 Hughes Ave,Bronx,10458,"['2372 Hughes Ave', 'Bronx, NY 10458']"
208,Terranova Bakery,56,4.5,['delivery'],$$,40.8544,-73.88481,bakeries,691 E 187th St,Bronx,10458,"['691 E 187th St', 'Bronx, NY 10458']"
209,Pio Pio 4,212,3.5,['delivery'],$$,40.805956,-73.913923,latin,264 Cypress Ave,Bronx,10454,"['264 Cypress Ave', 'Bronx, NY 10454']"
210,Junior's Restaurant,4969,4.0,"['delivery', 'pickup']",$$,40.75756463099685,-73.98608001118411,bakeries,1515 Broadway,New York,10036,"['1515 Broadway', 'New York, NY 10036']"
211,Russ & Daughters,2477,4.5,['delivery'],$$,40.722589,-73.9882828294139,bagels,179 E Houston St,New York,10002,"['179 E Houston St', 'New York, NY 10002']"
212,Joe's Shanghai,6669,4.0,"['delivery', 'pickup']",$$,40.7156608,-73.9967012,shanghainese,46 Bowery St,New York,10013,"['46 Bowery St', 'New York, NY 10013']"
213,The Museum of Modern Art,2054,4.5,[],,40.761441,-73.977625,artmuseums,11 West 53rd St,New York,10019,"['11 West 53rd St', 'New York, NY 10019']"
214,Cachapas y mas,370,4.0,"['delivery', 'pickup']",$,40.862244,-73.92475,venezuelan,107 Dyckman St,New York,10040,"['107 Dyckman St', 'New York, NY 10040']"
215,Zen Ramen & Sushi,2193,4.5,"['delivery', 'pickup']",$$,40.75177475474212,-73.98897630211589,sushi,150 W 36th street,New York,10018,"['150 W 36th street', 'New York, NY 10018']"
216,Il Bambino,1265,4.5,"['delivery', 'pickup']",$$,40.76281,-73.92089,italian,34-08 31st Ave,Astoria,11106,"['34-08 31st Ave', 'Astoria, NY 11106']"
217,Chicken Vs Lamb,56,4.5,['delivery'],$,40.8489762040892,-73.845446217529,mideastern,1825 Eastchester Rd,Bronx,10461,"['1825 Eastchester Rd', 'Bronx, NY 10461']"
218,Brisas Del Caribe,190,3.5,['delivery'],$,40.832159,-73.851463,dominican,1207 Castle Hill Ave,Bronx,10462,"['1207 Castle Hill Ave', 'Bronx, NY 10462']"
219,Riverdale Indian Cuisine,101,4.0,"['delivery', 'pickup']",,40.88090163971181,-73.9088142,halal,308 W 231 St,Bronx,10463,"['308 W 231 St', 'Bronx, NY 10463']"
220,Spot Dessert Bar,3199,4.0,"['delivery', 'pickup']",$$,40.72939,-73.98892,desserts,13 St Marks Pl,New York,10003,"['13 St Marks Pl', 'New York, NY 10003']"
221,Per Se,1734,4.5,[],$$$$,40.7681528889558,-73.9827629623657,french,10 Columbus Cir,New York,10019,"['10 Columbus Cir', 'Fl 4', 'New York, NY 10019']"
222,Saggio,641,4.0,"['delivery', 'pickup']",$$,40.8514099281625,-73.9395604556239,italian,829 W 181st St,New York,10033,"['829 W 181st St', 'New York, NY 10033']"
223,Izakaya MEW,2574,4.0,"['delivery', 'pickup']",$$,40.750148,-73.9863203465939,tapas,53 W 35th St,New York,10001,"['53 W 35th St', 'New York, NY 10001']"
224,Stan's Sports Bar,142,4.0,[],$$,40.8268203,-73.9263982,sportsbars,836 River Ave,Bronx,10451,"['836 River Ave', 'Bronx, NY 10451']"
225,Grace Street,2910,4.0,"['delivery', 'pickup']",$$,40.7478576793883,-73.9865590631962,coffee,17 W 32nd St,New York,10001,"['17 W 32nd St', 'New York, NY 10001']"
226,Bella Pizza,86,4.0,"['delivery', 'pickup']",$,40.86291,-73.90197,pizza,19 W Fordham Rd,Bronx,10468,"['19 W Fordham Rd', 'Bronx, NY 10468']"
227,Pisticci,930,4.0,"['delivery', 'pickup', 'restaurant_reservation']",$$,40.8141624,-73.960288,italian,125 La Salle St,New York,10027,"['125 La Salle St', 'New York, NY 10027']"
228,Menchie's Frozen Yogurt,73,4.5,"['delivery', 'pickup']",$,40.8865829,-73.9099462,icecream,3555 Johnson Ave,Bronx,10463,"['3555 Johnson Ave', 'Bronx, NY 10463']"
229,The Grange Bar and Eatery,1003,4.0,"['delivery', 'pickup']",$$,40.8225233274899,-73.949358447155,bars,1635 Amsterdam Ave,New York,10031,"['1635 Amsterdam Ave', 'New York, NY 10031']"
230,The Bronx Beer Hall,155,3.5,"['delivery', 'pickup']",$$,40.854065223926746,-73.88821892775319,newamerican,2344 Arthur Ave,Bronx,10458,"['2344 Arthur Ave', 'Bronx, NY 10458']"
231,Tampopo Ramen,445,4.0,"['delivery', 'pickup']",$$,40.8505899,-73.93648,ramen,1 Bennett Ave,New York,10033,"['1 Bennett Ave', 'New York, NY 10033']"
232,Santiago's Beer Garden,626,4.5,"['delivery', 'pickup', 'restaurant_reservation']",$$,40.79849,-73.93382,dominican,2337 1st Ave,New York,10035,"['2337 1st Ave', 'New York, NY 10035']"
233,Honey's Thai Pavilion,242,3.5,"['delivery', 'pickup']",$$,40.8477712,-73.8312306,thai,3036 Westchester Ave,Bronx,10461,"['3036 Westchester Ave', 'Bronx, NY 10461']"
234,JoJu,1818,4.5,"['delivery', 'pickup']",$,40.7407051700423,-73.8793501821476,coffee,83-25 Broadway,Elmhurst,11373,"['83-25 Broadway', 'Elmhurst, NY 11373']"
235,Juliana's,2416,4.5,['delivery'],$$,40.70274718768062,-73.99343490196397,pizza,19 Old Fulton St,Brooklyn,11201,"['19 Old Fulton St', 'Brooklyn, NY 11201']"
236,Palace of Japan,187,3.5,"['delivery', 'pickup']",$$,40.88612,-73.91,japanese,3505 Johnson Ave,Bronx,10463,"['3505 Johnson Ave', 'Bronx, NY 10463']"
237,Fine Food Cuisine,101,4.0,['pickup'],$$,40.84519,-73.86704,newamerican,671 Morris Park Ave,Bronx,10462,"['671 Morris Park Ave', 'Bronx, NY 10462']"
238,Morrone Pastry Shop & Cafe,126,3.5,"['delivery', 'pickup']",$,40.85471,-73.8886799,bakeries,2349 Arthur Ave,Bronx,10458,"['2349 Arthur Ave', 'Bronx, NY 10458']"
239,The Healthy Kitchen,105,4.0,"['delivery', 'pickup']",$$,40.85035,-73.851727,salad,1135C Morris Park Ave,Bronx,10461,"['1135C Morris Park Ave', 'Bronx, NY 10461']"
240,The Wicked Wolf,107,4.0,"['delivery', 'pickup']",$$,40.81967,-73.81739,italian,4029 E Tremont Ave,Bronx,10465,"['4029 E Tremont Ave', 'Bronx, NY 10465']"
241,Chinatown Ice Cream Factory,2933,4.0,['delivery'],$,40.715452,-73.99818,icecream,65 Bayard St,New York,10013,"['65 Bayard St', 'New York, NY 10013']"
242,Brooklyn Bridge,1458,4.5,[],,40.7059677364821,-73.9966657489186,landmarks,334 Furman St,Brooklyn,11201,"['334 Furman St', 'Brooklyn, NY 11201']"
243,Pasquale Rigoletto Restaurant,188,3.5,"['delivery', 'pickup']",$$,40.8538,-73.88925,italian,2311 Arthur Ave,Bronx,10458,"['2311 Arthur Ave', 'Bronx, NY 10458']"
244,ROKC,471,4.5,"['delivery', 'pickup']",$$,40.8235051,-73.9522425,ramen,3452 Broadway,New York,10031,"['3452 Broadway', 'New York, NY 10031']"
245,Ladurée Madison,1959,4.5,"['delivery', 'pickup']",$$$,40.7707702252517,-73.9663760711639,macarons,864 Madison Ave,New York,10021,"['864 Madison Ave', 'New York, NY 10021']"
246,Sabrosura 2,139,4.0,"['delivery', 'pickup']",$$,40.8317697392748,-73.86583769469,spanish,1808 Westchester Ave,Bronx,10472,"['1808 Westchester Ave', 'Bronx, NY 10472']"
247,San Jose Restaurant,45,4.5,"['delivery', 'pickup']",$,40.8241674799833,-73.9279800807582,mexican,109 E 153rd St,Bronx,10451,"['109 E 153rd St', 'Bronx, NY 10451']"
248,Barrio BX,93,4.0,"['delivery', 'pickup']",,40.825745,-73.821619,bars,3764 E Tremont Ave,Bronx,10465,"['3764 E Tremont Ave', 'Bronx, NY 10465']"
249,Sorrento Pizzeria,94,4.0,"['delivery', 'pickup']",$,40.85447,-73.85438,pizza,2004 Williamsbridge Rd,Bronx,10461,"['2004 Williamsbridge Rd', 'Bronx, NY 10461']"
250,Los Nisperos,54,4.5,['delivery'],$$,40.81464,-73.9148699,peruvian,500 E 149th St,New York,10455,"['500 E 149th St', 'New York, NY 10455']"
251,Seasoned Vegan,1211,4.0,"['pickup', 'delivery']",$$,40.800664,-73.952757,vegan,55 Saint Nicholas Ave,New York,10026,"['55 Saint Nicholas Ave', 'New York, NY 10026']"
252,The Edge Harlem,692,4.0,"['delivery', 'pickup']",$$,40.8199158,-73.9460373,caribbean,101 Edgecombe Ave,New York,10030,"['101 Edgecombe Ave', 'New York, NY 10030']"
253,Upstate Craft Beer & Oyster Bar,1960,4.5,"['restaurant_reservation', 'delivery']",$$,40.726373,-73.986557,seafood,95 1st Ave,New York,10003,"['95 1st Ave', 'New York, NY 10003']"
254,The Alcove,983,5.0,"['delivery', 'pickup']",$$,40.7459065,-73.915103,gastropubs,41-11 49th St,Sunnyside,11104,"['41-11 49th St', 'Sunnyside, NY 11104']"
255,Sangria Cafe,226,3.5,"['delivery', 'pickup']",$$,40.8694235021877,-73.8272849569855,latin,2085 Bartow Ave,Bronx,10475,"['2085 Bartow Ave', 'Bronx, NY 10475']"
256,Bryant Park,1217,4.5,[],,40.7536079618246,-73.9832969941198,parks,41 W 40th St,New York,10018,"['41 W 40th St', 'New York, NY 10018']"
257,Butcher Bar,2168,4.0,"['pickup', 'delivery']",$$,40.76431,-73.9164,bbq,37-10 30th Ave,Astoria,11103,"['37-10 30th Ave', 'Astoria, NY 11103']"
258,Rubirosa,2602,4.5,"['delivery', 'pickup']",$$,40.722766,-73.996233,italian,235 Mulberry St,New York,10012,"['235 Mulberry St', 'New York, NY 10012']"
259,Sylvia's Restaurant,1938,3.5,['delivery'],$$,40.808657823618084,-73.94452409464206,southern,328 Malcolm X Blvd,New York,10027,"['328 Malcolm X Blvd', 'New York, NY 10027']"
260,American Museum of Natural History,2185,4.0,[],,40.781356,-73.974059,museums,200 Central Park W,New York,10024,"['200 Central Park W', 'New York, NY 10024']"
261,Lombardi's Pizza,6289,4.0,"['delivery', 'pickup']",$$,40.7215934960083,-73.9955956044561,pizza,32 Spring St,New York,10012,"['32 Spring St', 'New York, NY 10012']"
262,Pure Thai Cookhouse,2681,4.0,"['delivery', 'pickup']",$$,40.764291,-73.988159,thai,766 9th Ave,New York,10019,"['766 9th Ave', 'New York, NY 10019']"
263,Ess-a-Bagel,3950,4.0,"['delivery', 'pickup']",$,40.756300559255,-73.9703701025162,bakeries,831 3rd Ave,New York,10022,"['831 3rd Ave', 'New York, NY 10022']"
264,Shangerila Restaurant,261,3.0,"['delivery', 'pickup']",$$,40.847301,-73.8330438,sushi,2893 Buhre Ave,Bronx,10461,"['2893 Buhre Ave', 'Bronx, NY 10461']"
265,Carmine's Italian Restaurant - Times Square,3986,4.0,"['delivery', 'pickup']",$$,40.75749,-73.98662,italian,200 W 44th St,New York,10036,"['200 W 44th St', 'New York, NY 10036']"
266,Orrico's Italian Restaurant,46,4.5,"['delivery', 'pickup']",,40.8476994,-73.8318208,italian,3019 Westchester Ave,The Bronx,10461,"['3019 Westchester Ave', 'The Bronx, NY 10461']"
267,Top of the Rock,1675,4.5,[],,40.7593755,-73.9794036288354,landmarks,30 Rockefeller Plz,New York,10112,"['30 Rockefeller Plz', 'New York, NY 10112']"
268,SUROSS Thai Bistro,243,4.5,"['delivery', 'pickup']",$$,40.846016,-73.9387367,thai,4131 Broadway,New York,10033,"['4131 Broadway', 'New York, NY 10033']"
269,The Drunken Munkey - UES,1176,4.5,"['restaurant_reservation', 'delivery', 'pickup']",$$,40.78098,-73.94751,indpak,338 E 92nd St,New York,10128,"['338 E 92nd St', 'New York, NY 10128']"
270,Unique Fusion Restaurant,84,5.0,"['delivery', 'pickup']",$$,40.8670407799303,-73.9210193562469,asianfusion,586 West 207 St,New York,10034,"['586 West 207 St', 'New York, NY 10034']"
271,Dutch Freds,1750,4.5,['delivery'],$$,40.760835,-73.987823,cocktailbars,307 W 47th St,New York,10036,"['307 W 47th St', 'New York, NY 10036']"
272,ABC Kitchen,3072,4.0,['delivery'],$$$,40.737916,-73.989488,breakfast_brunch,35 E 18th St,New York,10003,"['35 E 18th St', 'New York, NY 10003']"
273,Uva,2552,4.0,"['restaurant_reservation', 'delivery', 'pickup']",$$$,40.7722,-73.95566,italian,1486 2nd Ave,New York,10075,"['1486 2nd Ave', 'New York, NY 10075']"
274,Bua Thai Ramen & Robata Grill,1372,4.5,"['restaurant_reservation', 'delivery', 'pickup']",$$,40.77635,-73.95308,thai,1611 2nd Ave,New York,10028,"['1611 2nd Ave', 'New York, NY 10028']"
275,Bronx Burger House,52,4.5,['delivery'],$$,40.904725,-73.896945,burgers,5816 Mosholu Ave,Bronx,10471,"['5816 Mosholu Ave', 'Bronx, NY 10471']"
276,Venezia Pizzeria,46,4.5,"['delivery', 'pickup']",$,40.85993,-73.85515,pizza,1115 Astor Ave,Bronx,10469,"['1115 Astor Ave', 'Bronx, NY 10469']"
277,L'Artusi,2037,4.5,"['delivery', 'pickup']",$$$,40.73372,-74.00513,italian,228 W 10th St,New York,10014,"['228 W 10th St', 'New York, NY 10014']"
278,Step In Restaurant,127,3.5,"['delivery', 'pickup']",$$,40.833886,-73.861084,lounges,1309 Metropolitan Ave,Bronx,10462,"['1309 Metropolitan Ave', 'Bronx, NY 10462']"
279,Keens Steakhouse,2790,4.0,['delivery'],$$$$,40.75071,-73.98652,steak,72 W 36th St,New York,10018,"['72 W 36th St', 'New York, NY 10018']"
280,Beccofino,138,4.0,['delivery'],$$,40.9053542,-73.9004326,italian,5704 Mosholu Ave,Bronx,10471,"['5704 Mosholu Ave', 'Bronx, NY 10471']"
281,Lido,1085,4.0,"['delivery', 'pickup']",$$,40.8049797781916,-73.9548260014624,italian,2168 Frederick Douglass Blvd,New York,10026,"['2168 Frederick Douglass Blvd', 'New York, NY 10026']"
282,Dino's Pizza,100,4.0,[],$,40.905006,-73.901298,pizza,5660 Mosholu Ave,Bronx,10471,"['5660 Mosholu Ave', 'Bronx, NY 10471']"
283,Wah Fung No 1,1731,4.5,['delivery'],$,40.71735,-73.99457,hotdogs,79 Chrystie St,New York,10002,"['79 Chrystie St', 'New York, NY 10002']"
284,Molly's Cupcakes,1749,4.5,"['pickup', 'delivery']",$$,40.73014,-74.00248,bakeries,228 Bleecker St,New York,10014,"['228 Bleecker St', 'New York, NY 10014']"
285,Thursday Kitchen,1557,4.5,"['delivery', 'pickup']",$$,40.72761,-73.98373,korean,424 E 9th St,New York,10009,"['424 E 9th St', 'New York, NY 10009']"
286,MAiSONETTA,36,5.0,"['delivery', 'pickup']",,40.808704,-73.929127,french,141 Lincoln Ave,Bronx,10454,"['141 Lincoln Ave', 'Bronx, NY 10454']"
287,Jean-Georges,1935,4.0,"['delivery', 'pickup']",$$$$,40.7691122743293,-73.9814290717583,french,1 Central Park W,New York,10023,"['1 Central Park W', 'New York, NY 10023']"
288,Traif,1938,4.5,"['delivery', 'pickup']",$$$$,40.710658,-73.958872,newamerican,229 S 4th St,Brooklyn,11211,"['229 S 4th St', 'Brooklyn, NY 11211']"
289,The Dolar Shop,947,4.5,"['restaurant_reservation', 'delivery', 'pickup']",$$$,40.761057,-73.83306,chinese,36-36 Prince St,Flushing,11354,"['36-36 Prince St', 'Fl 1', 'Flushing, NY 11354']"
290,Bagels On Bartow,65,4.5,['delivery'],$,40.8692951,-73.8299709,bagels,2033 Bartow Ave,Bronx,10475,"['2033 Bartow Ave', 'Bronx, NY 10475']"
291,Mad For Chicken,1970,4.0,"['delivery', 'pickup']",$$,40.7635739,-73.8079404,korean,157-18 Northern Blvd,Flushing,11354,"['157-18 Northern Blvd', 'Flushing, NY 11354']"
292,Tryon Public House,409,4.0,"['delivery', 'pickup']",$$,40.8649821372469,-73.927843119049,tradamerican,4740 Broadway,New York,10040,"['4740 Broadway', 'New York, NY 10040']"
293,Kirvens,32,4.5,['delivery'],,40.85439,-73.8663897,pubs,736 Lydig Ave,Bronx,10462,"['736 Lydig Ave', 'Bronx, NY 10462']"
294,Pocion,175,4.5,"['delivery', 'pickup']",$$,40.8475749396196,-73.9384309485114,vegan,704 W 177th St,New York,10033,"['704 W 177th St', 'New York, NY 10033']"
295,Spring Shabu-Shabu,1263,4.0,[],$$,40.760924701904784,-73.83002707689919,buffets,136 20 38th Ave,Flushing,11354,"['136 20 38th Ave', 'Fl 2', 'Flushing, NY 11354']"
296,KazuNori  | The Original Hand Roll Bar,1184,4.5,['delivery'],$$,40.74519,-73.98824,sushi,15 W 28th St,New York,10001,"['15 W 28th St', 'New York, NY 10001']"
297,Locksmith Bar,417,4.0,"['delivery', 'pickup']",$$,40.8573807,-73.9325659,newamerican,4463 Broadway,New York,10040,"['4463 Broadway', 'New York, NY 10040']"
298,Cannelle Patisserie,867,4.5,['delivery'],$$,40.7587709,-73.8917685,bakeries,75-59 31st Ave,East Elmhurst,11370,"['75-59 31st Ave', 'East Elmhurst, NY 11370']"
299,Boucherie West Village,1983,4.5,"['delivery', 'pickup']",$$$,40.733063,-74.0028772,french,99 7th Ave S,New York,10014,"['99 7th Ave S', 'New York, NY 10014']"
300,Rice To Riches,3116,4.0,"['pickup', 'delivery']",$$,40.721845,-73.995802,desserts,37 Spring St,New York,10012,"['37 Spring St', 'New York, NY 10012']"
301,Mamoun's Falafel,2486,4.0,['delivery'],$,40.7302874,-74.0004383,mideastern,119 MacDougal St,New York,10012,"['119 MacDougal St', 'New York, NY 10012']"
302,Barn Joo 35,2179,4.0,"['pickup', 'delivery']",$$,40.74964,-73.98582,korean,34 W 35th St,New York,10001,"['34 W 35th St', 'New York, NY 10001']"
303,NY Pizza Suprema,2199,4.0,"['pickup', 'delivery']",$,40.7502059936523,-73.9953231811523,pizza,413 8th Ave,New York,10001,"['413 8th Ave', 'New York, NY 10001']"
304,Top Thai Greenwich,1688,4.5,"['pickup', 'delivery']",$$,40.729771,-73.999392,thai,235 Sullivan St,New York,10012,"['235 Sullivan St', 'New York, NY 10012']"
305,Marea,2210,4.0,"['pickup', 'delivery']",$$$$,40.7674213694566,-73.9810554368179,italian,240 Central Park S,New York,10019,"['240 Central Park S', 'New York, NY 10019']"
306,Tonchin,1552,4.5,"['pickup', 'delivery']",$$,40.7502727,-73.9844951,ramen,13 W 36th St,New York,10018,"['13 W 36th St', 'New York, NY 10018']"
307,Seis Vecinos Restaurant,142,3.5,"['pickup', 'delivery']",$$,40.81533,-73.90317,latin,640 Prospect Ave,Bronx,10455,"['640 Prospect Ave', 'Bronx, NY 10455']"
308,BLVD Bistro,1098,4.0,"['pickup', 'restaurant_reservation', 'delivery']",$$,40.80438,-73.9558,tradamerican,2149 Frederick Douglass Blvd,New York,10026,"['2149 Frederick Douglass Blvd', 'New York, NY 10026']"
309,La Cocina Boricua,200,3.5,"['pickup', 'delivery']",$$,40.83449,-73.85047,latin,2245 B Westchester Ave,Bronx,10462,"['2245 B Westchester Ave', 'Bronx, NY 10462']"
310,So Kong Dong,761,4.0,['delivery'],$$,40.85056,-73.96702,korean,130 Main St,Fort Lee,07024,"['130 Main St', 'Fort Lee, NJ 07024']"
311,Bea,2601,4.0,"['restaurant_reservation', 'delivery']",$$,40.7591968,-73.9923361,newamerican,403 W 43rd St,New York,10036,"['403 W 43rd St', 'New York, NY 10036']"
312,Sea Shore Restaurant & Marina,406,3.0,"['pickup', 'delivery']",$$$,40.854201,-73.790912,seafood,591 City Island Ave,Bronx,10464,"['591 City Island Ave', 'Bronx, NY 10464']"
313,Eileen's Special Cheesecake,1779,4.5,"['pickup', 'delivery']",$,40.7215431969029,-73.9972332037048,bakeries,17 Cleveland Pl,New York,10012,"['17 Cleveland Pl', 'New York, NY 10012']"
314,Beauty & Essex,3641,4.0,"['pickup', 'delivery']",$$$,40.720434786101286,-73.98686057623863,newamerican,146 Essex St,New York,10002,"['146 Essex St', 'New York, NY 10002']"
315,Hudson Smokehouse,95,4.0,"['pickup', 'delivery']",,40.8070624290931,-73.927560514179,bbq,37 Bruckner Blvd,Bronx,10454,"['37 Bruckner Blvd', 'Bronx, NY 10454']"
316,Moon Star Grill,120,4.0,"['pickup', 'delivery']",$$,40.8861089331436,-73.909908766271,asianfusion,3519-25 Johnson Ave,Riverdale,10463,"['3519-25 Johnson Ave', 'Riverdale, NY 10463']"
317,Shanghai Red Asian Latin Bistro,132,3.5,"['pickup', 'delivery']",$$,40.8401620296024,-73.8425095552948,asianfusion,127 Westchester Sq,Bronx,10461,"['127 Westchester Sq', 'Bronx, NY 10461']"
318,Yankee J-Z Pizza,63,4.5,['delivery'],$,40.8292327076197,-73.8757006824017,pizza,1599 Westchester Ave,Bronx,10472,"['1599 Westchester Ave', 'Bronx, NY 10472']"
319,Wafels & Dinges,1528,4.5,"['pickup', 'delivery']",$,40.7392845153809,-73.9989318847656,waffles,,New York,10011,"['New York, NY 10011']"
320,Tony's Pier,223,3.5,[],$$,40.837476,-73.7831385,seafood,1 City Island Ave,Bronx,10464,"['1 City Island Ave', 'Bronx, NY 10464']"
321,Tony's Di Napoli,2279,4.0,"['pickup', 'delivery']",$$,40.75641,-73.98547,italian,147 W 43rd St,New York,10036,"['147 W 43rd St', 'New York, NY 10036']"
322,Cafe Habana,3211,4.0,"['pickup', 'delivery']",$$,40.722998,-73.994171,cuban,17 Prince St,New York,10012,"['17 Prince St', 'New York, NY 10012']"
323,Artichoke Basille's Pizza,4062,4.0,"['pickup', 'delivery']",$,40.7321124557704,-73.9839056828882,pizza,321 E 14th St,New York,10003,"['321 E 14th St', 'New York, NY 10003']"
324,Muscle Maker Grill,116,4.0,"['pickup', 'delivery']",$$,40.8195,-73.8171,newamerican,4041 E Tremont Ave,Bronx,10465,"['4041 E Tremont Ave', 'Bronx, NY 10465']"
325,Ali's Roti Shop,101,4.0,[],$,40.894,-73.85684,trinidadian,4220 White Plains Rd,Bronx,10466,"['4220 White Plains Rd', 'Bronx, NY 10466']"
326,Eating Tree,137,3.5,"['pickup', 'delivery']",$,40.8281599,-73.92442,caribbean,892 Gerard Ave,Bronx,10452,"['892 Gerard Ave', 'Bronx, NY 10452']"
327,Nicky's Coffee Shop,68,4.0,"['pickup', 'delivery']",$,40.8748959634318,-73.879283460723,breakfast_brunch,3140 Bainbridge Ave,Bronx,10467,"['3140 Bainbridge Ave', 'Bronx, NY 10467']"
328,Watawa Sushi,929,4.0,[],$$,40.774959,-73.9095,sushi,33-10 Ditmars Blvd,Astoria,11105,"['33-10 Ditmars Blvd', 'Astoria, NY 11105']"
329,Joe's Pizza,2780,4.0,['delivery'],$,40.73060076,-74.00215997,pizza,7 Carmine St,New York,10014,"['7 Carmine St', 'New York, NY 10014']"
330,Jin Ramen - West Harlem,1122,4.0,"['pickup', 'delivery']",$$,40.8154774,-73.9587672,ramen,3183 Broadway,New York,10027,"['3183 Broadway', 'New York, NY 10027']"
331,Sushi Yasuda,2180,4.0,[],$$$$,40.75113,-73.97347,sushi,204 E 43rd St,New York,10017,"['204 E 43rd St', 'New York, NY 10017']"
332,Jongro BBQ,2236,4.0,"['pickup', 'delivery']",$$,40.747514,-73.986884,korean,22 W 32nd St,New York,10001,"['22 W 32nd St', 'Fl 2', 'New York, NY 10001']"
333,Benyam Cuisine,144,4.5,['delivery'],$$,40.82522,-73.94058,ethiopian,2795 Frederick Douglas Blvd,New York,10039,"['2795 Frederick Douglas Blvd', 'New York, NY 10039']"
334,Blackstone Bar & Grill,98,4.0,"['pickup', 'delivery']",$$,40.887361171014,-73.9071422050018,sportsbars,3713 Riverdale Ave,Bronx,10463,"['3713 Riverdale Ave', 'Bronx, NY 10463']"
335,Queen Of Tacos,117,3.5,"['pickup', 'delivery']",$$,40.880223,-73.883453,mexican,9 E Mosholu Pkwy N,Bronx,10467,"['9 E Mosholu Pkwy N', 'Bronx, NY 10467']"
336,McDermott's Pub,62,4.0,['delivery'],$$,40.84276,-73.84622,pubs,2634 E Tremont Ave,Bronx,10461,"['2634 E Tremont Ave', 'Bronx, NY 10461']"
337,B Side Pizza & Wine Bar,1200,4.5,"['pickup', 'delivery']",$$,40.76388,-73.98821,pizza,370 W 51st St,New York,10019,"['370 W 51st St', 'New York, NY 10019']"
338,Melba's Restaurant,1414,4.0,"['pickup', 'delivery']",$$,40.8031468838453,-73.9565069228411,southern,300 W 114th St,New York,10026,"['300 W 114th St', 'New York, NY 10026']"
339,Raku,1303,4.5,"['pickup', 'delivery']",$$,40.7264988089246,-73.9866526052356,japanese,342 E 6th St,New York,10003,"['342 E 6th St', 'New York, NY 10003']"
340,ShabuRo,535,4.5,"['pickup', 'delivery']",$$,40.8480599,-73.98447,hotpot,520 Bergen Blvd,Palisades Park,07650,"['520 Bergen Blvd', 'Ste 2', 'Palisades Park, NJ 07650']"
341,The Barbecue Pit,125,4.0,"['pickup', 'delivery']",$$,40.90533,-73.89777,bbq,5788 Mosholu Ave,Bronx,10471,"['5788 Mosholu Ave', 'Bronx, NY 10471']"
342,Tanner Smiths,1873,4.5,"['pickup', 'delivery']",$$,40.76442,-73.98169,cocktailbars,204 W 55th St,New York,10019,"['204 W 55th St', 'New York, NY 10019']"
343,Woorijip,2726,4.0,"['pickup', 'delivery']",$,40.74747,-73.98648,korean,12 W 32nd St,New York,10001,"['12 W 32nd St', 'New York, NY 10001']"
344,Cascalote Latin Bistro,374,4.5,"['pickup', 'delivery']",$$,40.79271,-73.94069,latin,2126 2nd Ave,New York,10029,"['2126 2nd Ave', 'New York, NY 10029']"
345,Bronx Museum of the Arts,56,4.0,[],,40.83102,-73.91975,museums,1040 Grand Concourse,Bronx,10456,"['1040 Grand Concourse', 'Bronx, NY 10456']"
346,ilili,2541,4.0,"['pickup', 'delivery']",$$$,40.74435,-73.98778,mediterranean,236 5th Ave,New York,10001,"['236 5th Ave', 'New York, NY 10001']"
347,Tony's Beechhurst Deli,224,5.0,['delivery'],$$,40.7917673014336,-73.8074826952133,delis,1118 154th St,Whitestone,11357,"['1118 154th St', 'Whitestone, NY 11357']"
348,Vegans Delight,55,4.5,['delivery'],$,40.878643,-73.844436,vegan,3565 Boston Rd,New York,10469,"['3565 Boston Rd', 'New York, NY 10469']"
349,Saigon Shack,2543,4.0,"['pickup', 'delivery']",$$,40.72969,-74.000629,vietnamese,114 Macdougal St,New York,10012,"['114 Macdougal St', 'New York, NY 10012']"
350,taïm mediterranean kitchen - West Village,1549,4.5,"['delivery', 'pickup']",$$,40.736002376347,-74.0019588366439,falafel,222 Waverly Pl,New York,10014,"['222 Waverly Pl', 'New York, NY 10014']"
351,The Smith,2870,4.0,"['delivery', 'pickup']",$$,40.755165,-73.967868,newamerican,956 2nd Ave,New York,10022,"['956 2nd Ave', 'New York, NY 10022']"
352,Escape Latino,112,4.0,"['delivery', 'pickup']",$$,40.8483407,-73.8316408,latin,1841 Hobart Ave,Bronx,10461,"['1841 Hobart Ave', 'Bronx, NY 10461']"
353,Sushi Yasaka,1875,4.0,"['delivery', 'pickup']",$$,40.779583,-73.983482,japanese,251 W 72nd St,New York,10023,"['251 W 72nd St', 'New York, NY 10023']"
354,Trattoria Trecolori,2468,4.0,"['delivery', 'pickup']",$$,40.759876,-73.986767,italian,254 West 47th St,New York,10036,"['254 West 47th St', 'New York, NY 10036']"
355,Alimama,1520,4.5,"['delivery', 'pickup']",$$,40.715768,-73.9992981,desserts,89A Bayard St,New York,10013,"['89A Bayard St', 'New York, NY 10013']"
356,Sakagura,1806,4.0,['delivery'],$$$$,40.7516467024541,-73.9729489318165,japanese,211 E 43rd St,New York,10017,"['211 E 43rd St', 'New York, NY 10017']"
357,Tasty Deli,290,4.0,"['delivery', 'pickup']",$,40.8417636163985,-73.9390395039113,delis,4020 Broadway,New York,10032,"['4020 Broadway', 'New York, NY 10032']"
358,Soft Swerve,1687,4.5,"['delivery', 'pickup']",$$,40.718201,-73.991247,icecream,85B Allen St,New York,10002,"['85B Allen St', 'New York, NY 10002']"
359,Schmackary's,2091,4.0,"['delivery', 'pickup']",$,40.760153883881,-73.990944257291,desserts,362 W 45th St,New York,10036,"['362 W 45th St', 'New York, NY 10036']"
360,188 Bakery Cuchifritos,89,4.0,['delivery'],$,40.8614682,-73.8983208,bakeries,158 E 188th St,Bronx,10468,"['158 E 188th St', 'Bronx, NY 10468']"
361,Roberta's,3077,4.0,"['delivery', 'pickup']",$$,40.70493,-73.93399,pizza,261 Moore St,Brooklyn,11206,"['261 Moore St', 'Brooklyn, NY 11206']"
362,Peter Pan Donut & Pastry Shop,1457,4.5,['delivery'],$,40.726086,-73.952308,bakeries,727 Manhattan Ave,Brooklyn,11222,"['727 Manhattan Ave', 'Brooklyn, NY 11222']"
363,Sea Fire Grill,1369,4.5,['delivery'],$$$,40.754712702669345,-73.97222533963885,seafood,158 E 48th St,New York,10017,"['158 E 48th St', 'New York, NY 10017']"
364,OBAO,3224,4.0,"['delivery', 'pickup']",$$,40.7606544,-73.991332,vietnamese,647 9th Ave,New York,10036,"['647 9th Ave', 'New York, NY 10036']"
365,Cross Bronx Pizzeria,62,4.0,"['delivery', 'pickup']",$,40.830015,-73.850774,pizza,2170 Cross Bronx Expy,Bronx,10472,"['2170 Cross Bronx Expy', 'Bronx, NY 10472']"
366,Blend on the Water,3535,4.0,"['delivery', 'pickup']",$$,40.748216,-73.956973,latin,45-40 Center Blvd,Long Island City,11109,"['45-40 Center Blvd', 'Long Island City, NY 11109']"
367,The Boil,1992,4.0,"['delivery', 'pickup']",$$,40.71974,-73.99339,cajun,139 Chrystie St,New York,10002,"['139 Chrystie St', 'New York, NY 10002']"
368,Jane Restaurant,3330,4.0,"['delivery', 'pickup']",$$,40.7273779,-74.00025,breakfast_brunch,100 W Houston St,New York,10012,"['100 W Houston St', 'New York, NY 10012']"
369,Balthazar,3317,4.0,"['delivery', 'pickup']",$$$,40.7226892950401,-73.9982149184027,french,80 Spring St,New York,10012,"['80 Spring St', 'New York, NY 10012']"
370,Lash West Indian & American Cuisine,177,3.5,"['delivery', 'pickup']",$$,40.87122,-73.8632,indpak,800 Burke Ave,Bronx,10467,"['800 Burke Ave', 'Bronx, NY 10467']"
371,Sugar Sweet Sunshine Bakery,2099,4.0,"['delivery', 'pickup']",$,40.719851,-73.987011,bakeries,126 Rivington St,New York,10002,"['126 Rivington St', 'New York, NY 10002']"
372,Neem Indian Cuisine,68,4.0,"['delivery', 'pickup']",,40.886547,-73.909968,indpak,3549 Johnson Ave,New York,10463,"['3549 Johnson Ave', 'New York, NY 10463']"
373,Bleecker Street Pizza,2564,4.0,"['delivery', 'pickup']",$,40.7320627016512,-74.0036552270137,pizza,69 7th Ave S,New York,10014,"['69 7th Ave S', 'New York, NY 10014']"
374,Yankee Tavern,111,4.0,"['delivery', 'pickup']",$$,40.8273023,-73.9252554,sportsbars,72 E 161st St,Bronx,10451,"['72 E 161st St', 'Bronx, NY 10451']"
375,The Honey Well,301,4.5,"['pickup', 'delivery', 'restaurant_reservation']",$$,40.82849,-73.94862,cocktailbars,3604 Broadway,New York,10031,"['3604 Broadway', 'New York, NY 10031']"
376,Novelty Eats,97,4.0,['delivery'],$$,40.847874,-73.83174,comfortfood,1821 Hobart Ave,Bronx,10461,"['1821 Hobart Ave', 'Bronx, NY 10461']"
377,Manolo Tapas,292,4.0,['delivery'],$$,40.84713,-73.93837,tapas,4165 Broadway,New York,10033,"['4165 Broadway', 'New York, NY 10033']"
378,Maison Pickle,1370,4.0,"['delivery', 'pickup']",$$,40.7870473,-73.9781361,cocktailbars,2315 Broadway,New York,10024,"['2315 Broadway', 'New York, NY 10024']"
379,Royal Coach Diner,211,3.5,"['delivery', 'pickup']",$$,40.8724886,-73.8542747,diners,3260 Boston Rd,Bronx,10469,"['3260 Boston Rd', 'Bronx, NY 10469']"
380,Yaar Indian Restaurant,422,4.5,"['delivery', 'pickup']",$$,40.774803026853,-73.9120166023413,indpak,22-55 31st St,Astoria,11105,"['22-55 31st St', 'Astoria, NY 11105']"
381,Pizza Palace,134,4.5,[],$,40.8629818681867,-73.9256393909454,pizza,121 Dyckman St,New York,10034,"['121 Dyckman St', 'New York, NY 10034']"
382,McSorleys Old Ale House,1846,4.5,[],$,40.72884,-73.98965,divebars,15 E 7th St,New York,10003,"['15 E 7th St', 'New York, NY 10003']"
383,Scarpetta,2079,4.0,['delivery'],$$$,40.744509,-73.9856,italian,88 Madison Ave,New York,10016,"['88 Madison Ave', 'New York, NY 10016']"
384,John's of Bleecker Street,2243,4.0,"['delivery', 'pickup']",$$,40.73158,-74.00332,pizza,278 Bleecker St,New York,10014,"['278 Bleecker St', 'New York, NY 10014']"
385,Sugar Freak,1854,4.0,"['delivery', 'pickup']",$$,40.7646298318085,-73.9159499108791,cajun,37-11 30th Ave,Astoria,11103,"['37-11 30th Ave', 'Astoria, NY 11103']"
386,Empanada Mama - Hell's Kitchen,2704,4.0,"['delivery', 'pickup']",$$,40.76441,-73.9885,latin,765 9th Ave,New York,10019,"['765 9th Ave', 'New York, NY 10019']"
387,Milk & Cream Cereal Bar,1085,4.5,"['delivery', 'pickup']",$$,40.71958,-73.99654,icecream,159 Mott St,New York,10013,"['159 Mott St', 'New York, NY 10013']"
388,Ginger and Lemongrass,875,4.0,"['delivery', 'pickup']",$$,40.78929,-73.81369,vietnamese,1253 150th St,Whitestone,11357,"['1253 150th St', 'Whitestone, NY 11357']"
389,Crosby Pizza Stop,91,4.0,"['delivery', 'pickup']",$,40.846125,-73.831939,pizza,1731 Crosby Ave,Bronx,10461,"['1731 Crosby Ave', 'Bronx, NY 10461']"
390,Hard Rock Cafe,139,3.5,"['delivery', 'pickup']",$$,40.82855,-73.925884,tradamerican,1 E 161st St,Bronx,10451,"['1 E 161st St', 'Yankee Stadium', 'Bronx, NY 10451']"
391,SriPraPhai Thai Restaurant,2438,4.0,[],$$,40.7464987,-73.8992328,thai,64-13 39th Ave,Woodside,11377,"['64-13 39th Ave', 'Woodside, NY 11377']"
392,Sundaes and Cones,1545,4.5,['delivery'],$$,40.730934,-73.989318,icecream,95 E 10th St,New York,10003,"['95 E 10th St', 'New York, NY 10003']"
393,HinoMaru Ramen,926,4.0,"['delivery', 'pickup']",$$,40.774889916651,-73.9092001318932,ramen,33-18 Ditmars Blvd,Astoria,11105,"['33-18 Ditmars Blvd', 'Astoria, NY 11105']"
394,Patsy's Pizzeria,887,4.0,['delivery'],$$,40.797157,-73.93488,pizza,2287 1st Ave,New York,10035,"['2287 1st Ave', 'New York, NY 10035']"
395,Rambling House,164,3.5,['delivery'],$$,40.8983612,-73.8671608,pubs,4292 Katonah Ave,Bronx,10470,"['4292 Katonah Ave', 'Bronx, NY 10470']"
396,Veniero's,2213,4.0,"['delivery', 'pickup']",$$,40.729431,-73.984541,bakeries,342 E 11th St,New York,10003,"['342 E 11th St', 'New York, NY 10003']"
397,Saiguette,667,4.5,[],$$,40.79902,-73.96281,vietnamese,935 Columbus Ave,New York,10025,"['935 Columbus Ave', 'New York, NY 10025']"
398,Luke's Lobster Upper East Side,1205,4.0,['delivery'],$$,40.7747308470083,-73.9545491922026,seafood,242 E 81st St,New York,10028,"['242 E 81st St', 'New York, NY 10028']"
399,Inwood Bar and Grill,539,3.5,"['delivery', 'pickup', 'restaurant_reservation']",$$,40.867068,-73.922459,sportsbars,4892 Broadway,New York,10034,"['4892 Broadway', 'New York, NY 10034']"
400,Sushi Nakazawa,1552,4.5,[],$$$$,40.7317465228689,-74.0045493828034,japanese,23 Commerce St,New York,10014,"['23 Commerce St', 'New York, NY 10014']"
401,Cinco De Mayo,114,3.5,"['delivery', 'pickup']",$,40.8225131696248,-73.9115964114002,mexican,837 Washington Ave,Bronx,10451,"['837 Washington Ave', 'Bronx, NY 10451']"
402,Her Name Is Han,1485,4.5,"['delivery', 'pickup']",$$,40.7462615966797,-73.984733581543,korean,17 E 31st St,New York,10016,"['17 E 31st St', 'New York, NY 10016']"
403,Ornella Trattoria Italiana,970,4.0,"['delivery', 'pickup', 'restaurant_reservation']",$$,40.77492896373639,-73.9131205612016,italian,29-17 23rd Ave,Astoria,11105,"['29-17 23rd Ave', 'Astoria, NY 11105']"
404,Raines Law Room,1514,4.5,['delivery'],$$$,40.73879,-73.99455,lounges,48 W 17th St,New York,10011,"['48 W 17th St', 'New York, NY 10011']"
405,La Sirène-Soho,1658,4.5,"['delivery', 'pickup']",$$$,40.7243642217227,-74.005708694458,french,558 Broome St,New York,10013,"['558 Broome St', 'New York, NY 10013']"
406,Zhongzhong Noodles - Bronx,31,4.5,"['delivery', 'pickup']",$$,40.85658,-73.88415,chinese,657 E 189th St,The Bronx,10458,"['657 E 189th St', 'The Bronx, NY 10458']"
407,Bono Trattoria,336,4.0,"['delivery', 'pickup']",$$,40.8301996389829,-73.9473449424522,pizza,3658 Broadway,New York,10031,"['3658 Broadway', 'New York, NY 10031']"
408,Roc N Ramen,55,4.0,"['delivery', 'pickup']",$$,40.85531,-73.88738,caribbean,606 E 187th St,The Bronx,10473,"['606 E 187th St', 'The Bronx, NY 10473']"
409,Max Brenner - New York,4824,3.5,"['delivery', 'pickup']",$$,40.7342670594805,-73.9910549187747,desserts,841 Broadway,New York,10003,"['841 Broadway', 'New York, NY 10003']"
410,Sugar Hill Cafe,388,4.0,"['delivery', 'pickup']",$,40.8242199,-73.9456,coffee,410 W 145th St,New York,10031,"['410 W 145th St', 'New York, NY 10031']"
411,Brooklyn Bagel & Coffee Company,1646,4.0,"['delivery', 'pickup']",$,40.746183,-73.997642,bagels,286 8th Ave,New York,10001,"['286 8th Ave', 'New York, NY 10001']"
412,Maxi’s Noodle,447,4.5,"['delivery', 'pickup']",$$,40.76052,-73.83227,cantonese,135-11 38th Ave,Flushing,11354,"['135-11 38th Ave', 'Flushing, NY 11354']"
413,Calle Dao - Bryant Park,1799,4.0,"['delivery', 'pickup']",$$,40.75222,-73.98420351,cuban,38 W 39th St,New York,10018,"['38 W 39th St', 'New York, NY 10018']"
414,Shake Shack,2385,4.0,"['delivery', 'pickup']",$$,40.7808207060578,-73.9765516723468,burgers,366 Columbus Ave,New York,10024,"['366 Columbus Ave', 'New York, NY 10024']"
415,Agra Grill,83,4.0,"['delivery', 'pickup']",$$,40.88465,-73.86244,indpak,3835 White Plains Rd,Bronx,10467,"['3835 White Plains Rd', 'Bronx, NY 10467']"
416,City Cakes,856,4.5,['delivery'],$$,40.74078,-73.99695,desserts,155 W 18th St,New York,10011,"['155 W 18th St', 'New York, NY 10011']"
417,Sugi sushi,93,4.0,"['delivery', 'pickup']",$$,40.82516,-73.82025,sushi,3799 E Tremont Ave,Bronx,10465,"['3799 E Tremont Ave', 'Bronx, NY 10465']"
418,Gotham Restaurant,1619,4.0,"['delivery', 'pickup']",$$$$,40.734186,-73.993696,newamerican,12 E 12th St,New York,10003,"['12 E 12th St', 'New York, NY 10003']"
419,Joe's Steam Rice Roll 石磨腸粉王,773,4.5,"['delivery', 'pickup']",$,40.76012,-73.82941,dimsum,136-21 Roosevelt Ave,Flushing,11354,"['136-21 Roosevelt Ave', 'Flushing, NY 11354']"
420,Pepe's Place,406,4.5,"['delivery', 'pickup']",$$,40.9209170900794,-73.7875532358885,seafood,560 North Ave,New Rochelle,10801,"['560 North Ave', 'New Rochelle, NY 10801']"
421,Dallas BBQ,234,3.0,"['delivery', 'pickup']",$$,40.86205,-73.91179,bbq,281 W Fordham Rd,Bronx,10468,"['281 W Fordham Rd', 'Bronx, NY 10468']"
422,Shanghai You Garden,1268,4.0,"['delivery', 'pickup']",$$,40.75895,-73.83056,shanghainese,135-33 40th Rd,Flushing,11354,"['135-33 40th Rd', 'Flushing, NY 11354']"
423,Sottocasa Pizzeria - Harlem,309,4.5,['delivery'],$$,40.8055499,-73.94746,pizza,227 Lenox Ave,New York,10027,"['227 Lenox Ave', 'New York, NY 10027']"
424,Portofino Restaurant,229,3.5,[],$$$,40.853397,-73.79028,italian,555 City Island Ave,Bronx,10464,"['555 City Island Ave', 'Bronx, NY 10464']"
425,Franco's,40,4.5,['delivery'],$,40.8173294067383,-73.9214859008789,juicebars,295 E 149th St,New York,10451,"['295 E 149th St', 'New York, NY 10451']"
426,El Kallejon,319,4.5,['delivery'],$$,40.798538,-73.938805,tapas,209 E 117th St,New York,10035,"['209 E 117th St', 'New York, NY 10035']"
427,The Chipped Cup,404,4.0,"['delivery', 'pickup']",$$,40.828716,-73.948592,coffee,3610 Broadway,New York,10031,"['3610 Broadway', 'New York, NY 10031']"
428,LoLo's Seafood Shack,793,4.0,"['delivery', 'pickup']",$$,40.80486,-73.95567,seafood,303 W 116th St,New York,10026,"['303 W 116th St', 'New York, NY 10026']"
429,Fumo Pizza-Bar-Pasta,527,4.0,"['delivery', 'pickup']",$$,40.821427,-73.950638,pizza,1600 Amsterdam Ave,New York,10031,"['1600 Amsterdam Ave', 'New York, NY 10031']"
430,Pique 86,41,4.5,"['delivery', 'pickup']",$,40.8696737140417,-73.8902724534273,mexican,220 E 198th St,Bronx,10458,"['220 E 198th St', 'Bronx, NY 10458']"
431,The Mermaid Inn,1237,4.0,"['delivery', 'pickup']",$$,40.7887398925594,-73.9744491607132,seafood,570 Amsterdam Ave,New York,10024,"['570 Amsterdam Ave', 'New York, NY 10024']"
432,Pio Pio 8,2427,4.0,['delivery'],$$,40.760506289326,-73.994564488901,latin,604 10th Ave,New York,10036,"['604 10th Ave', 'New York, NY 10036']"
433,Friedman's,2607,4.0,"['delivery', 'pickup']",$$,40.74839,-73.99062,newamerican,132 W 31st St,New York,10001,"['132 W 31st St', 'New York, NY 10001']"
434,Louie's Dale Diner,129,3.5,"['delivery', 'pickup']",$$,40.87901,-73.90412,diners,189 W 231st St,Bronx,10463,"['189 W 231st St', 'Bronx, NY 10463']"
435,Central Caribbean Bakery,31,4.5,"['delivery', 'pickup']",$,40.8711052990805,-73.8476570921214,bakeries,1322-C E Gunhill Rd,East Bronx,10469,"['1322-C E Gunhill Rd', 'East Bronx, NY 10469']"
436,Nick's Pizza Restaurant,67,4.0,['pickup'],$,40.8703332,-73.8462856,pizza,1356 E Gun Hill Rd,Bronx,10469,"['1356 E Gun Hill Rd', 'Bronx, NY 10469']"
437,Jajaja Mexicana,1094,4.5,"['delivery', 'pickup']",$$,40.71419,-73.99041,mexican,162 E Broadway,New York,10002,"['162 E Broadway', 'New York, NY 10002']"
438,Coffee Project New York | East Village,718,4.5,['delivery'],$,40.72699,-73.98922,coffee,239 E 5th St,New York,10003,"['239 E 5th St', 'New York, NY 10003']"
439,ININE Bistro,78,4.0,"['delivery', 'pickup']",$$,40.80674,-73.926696,waffles,53 Bruckner Blvd,New York,10454,"['53 Bruckner Blvd', 'New York, NY 10454']"
440,Veselka,2803,4.0,"['delivery', 'pickup']",$$,40.729036,-73.98712,diners,144 2nd Ave,New York,10003,"['144 2nd Ave', 'New York, NY 10003']"
441,Pye Boat Noodle,907,4.5,"['delivery', 'pickup']",$$,40.76043,-73.92152,thai,35-13 Broadway,Astoria,11106,"['35-13 Broadway', 'Astoria, NY 11106']"
442,Jerome Pizza,76,4.0,"['delivery', 'pickup']",$,40.873216463621,-73.8888399776716,pizza,21 Bedford Park Blvd E,Bronx,10468,"['21 Bedford Park Blvd E', 'Bronx, NY 10468']"
443,Minetta Tavern,2305,4.0,['delivery'],$$$,40.7300047976758,-74.0006073834151,french,113 Macdougal St,New York,10012,"['113 Macdougal St', 'New York, NY 10012']"
444,G's Coffee Shop,75,4.5,"['delivery', 'pickup']",$,40.8681434,-73.9216979,mexican,634 W 207th St,New York,10034,"['634 W 207th St', 'New York, NY 10034']"
445,Sushi by Bou Times Square,651,4.5,['restaurant_reservation'],$$$,40.75851,-73.98322,sushi,132 W 47th St,New York,10036,"['132 W 47th St', 'New York, NY 10036']"
446,Levain Bakery,661,4.5,['delivery'],$$,40.781532,-73.979286,bakeries,351 Amsterdam Ave,New York,10024,"['351 Amsterdam Ave', 'New York, NY 10024']"
447,Burger Time,147,3.5,"['delivery', 'pickup']",$$,40.8490600585938,-73.8534164428711,salad,1080 Morris Park Ave,Bronx,10461,"['1080 Morris Park Ave', 'Bronx, NY 10461']"
448,Morris Park Bake Shop,57,4.0,[],$$,40.84839,-73.85601,bakeries,1007 Morris Park Ave,Bronx,10462,"['1007 Morris Park Ave', 'Bronx, NY 10462']"
449,Seafood City,313,3.0,[],$$,40.8509765634744,-73.7896340329358,seafood,459 City Island Ave,Bronx,10464,"['459 City Island Ave', 'Bronx, NY 10464']"
450,Tana Thai,209,3.0,"['pickup', 'delivery']",$$,40.8513635,-73.8439993,thai,1890 Eastchester Rd,Bronx,10461,"['1890 Eastchester Rd', 'Bronx, NY 10461']"
451,Frisson Espresso,784,4.5,"['pickup', 'delivery']",$,40.7608108520508,-73.9889984130859,coffee,326 W 47th St,New York,10036,"['326 W 47th St', 'New York, NY 10036']"
452,Quality Meats,2085,4.0,"['pickup', 'delivery']",$$$$,40.764958,-73.976206,steak,57 W 58th St,New York,10019,"['57 W 58th St', 'New York, NY 10019']"
453,Breakroom,1637,4.5,"['pickup', 'delivery']",$$,40.7166907225542,-73.9999440120647,burgers,83 Baxter St,New York,10013,"['83 Baxter St', 'New York, NY 10013']"
454,Pho Metro,465,4.5,['delivery'],$$,40.7685908,-73.8336384,vietnamese,31-16 Farrington St,Flushing,11354,"['31-16 Farrington St', 'Flushing, NY 11354']"
455,Stumptown Coffee Roasters,1404,4.5,['delivery'],$$,40.7456663381275,-73.9880916348562,coffee,20 W 29th St,New York,10001,"['20 W 29th St', 'The Ace Hotel', 'New York, NY 10001']"
456,Cafe Mogador,2005,4.0,"['pickup', 'delivery']",$$,40.727258767439,-73.9845085144043,moroccan,101 St Marks Pl,New York,10009,"['101 St Marks Pl', 'New York, NY 10009']"
457,Pelham Bay Park,51,4.0,[],,40.865526,-73.809185,parks,1 Orchard Beach Rd,Bronx,10464,"['1 Orchard Beach Rd', 'Bronx, NY 10464']"
458,Aman,35,4.5,[],$,40.885147,-73.8794078,pakistani,3594 Jerome Ave,Bronx,10452,"['3594 Jerome Ave', 'Bronx, NY 10452']"
459,Pruzzo's Stop One Deli,62,4.0,"['pickup', 'delivery']",$,40.8467672,-73.8326353,delis,2937 Westchester Ave,Bronx,10461,"['2937 Westchester Ave', 'Bronx, NY 10461']"
460,Rincon Criollo,870,4.5,"['pickup', 'delivery']",$$,40.7489644,-73.8690814,cuban,40-09 Junction Blvd,Corona,11368,"['40-09 Junction Blvd', 'Corona, NY 11368']"
461,Pizza Barn,459,4.0,"['pickup', 'delivery']",$$,40.92033366683442,-73.86751644723435,pizza,471 Central Park Ave,Yonkers,10704,"['471 Central Park Ave', 'Yonkers, NY 10704']"
462,Egidio Pastry Shop,105,3.5,"['pickup', 'delivery']",$$$,40.85493,-73.8869,bakeries,622 E 187th St,Bronx,10458,"['622 E 187th St', 'Bronx, NY 10458']"
463,Vietnaam,844,4.0,['delivery'],$$,40.7791481018066,-73.9504165649414,vietnamese,1700 2nd Ave,New York,10128,"['1700 2nd Ave', 'New York, NY 10128']"
464,KYURAMEN,1024,4.0,"['restaurant_reservation', 'delivery', 'pickup']",$$,40.76051,-73.83339,ramen,133-42 37th Ave,Flushing,11354,"['133-42 37th Ave', 'Flushing, NY 11354']"
465,Tasty Picks,93,3.5,"['pickup', 'delivery']",$,40.8817454174423,-73.8794161271287,juicebars,89 E Gunhill Rd,New York,10467,"['89 E Gunhill Rd', 'New York, NY 10467']"
466,Mexicana Deli Grocery,46,4.5,"['pickup', 'delivery']",$,40.87233,-73.87775,mexican,339 E 204th St,Bronx,10467,"['339 E 204th St', 'Bronx, NY 10467']"
467,There Should Always Be Cake,87,3.5,"['pickup', 'delivery']",$$,40.84294,-73.8511,cupcakes,2465 E Tremont Ave,Bronx,10461,"['2465 E Tremont Ave', 'Bronx, NY 10461']"
468,Williamsburg Smorgasburg - Saturday,1141,4.5,[],$$,40.721021,-73.962177,foodstands,90 Kent Ave,Brooklyn,11211,"['90 Kent Ave', 'East River State Park', 'Brooklyn, NY 11211']"
469,Sushi Q Japanese Restaurant,102,3.5,"['pickup', 'delivery']",$$,40.84424,-73.83035,sushi,1610 Crosby Ave,Bronx,10461,"['1610 Crosby Ave', 'Bronx, NY 10461']"
470,Barino's Market,48,4.5,"['delivery', 'pickup']",$$,40.8461336,-73.8194777,grocery,3244 Ampere Ave,Bronx,10465,"['3244 Ampere Ave', 'Bronx, NY 10465']"
471,Peng's Noodle Folk,507,4.5,"['pickup', 'delivery']",$$,40.77726,-73.94932,chinese,1659 1st Ave,New York,10028,"['1659 1st Ave', 'New York, NY 10028']"
472,Inwood Hill Park,83,4.5,[],,40.8714360798267,-73.9255857467651,parks,Dyckman St,New York,10034,"['Dyckman St', 'New York, NY 10034']"
473,Martha's Country Bakery,1160,4.0,"['pickup', 'delivery']",$$,40.77409,-73.90737,bakeries,36-21 Ditmars Blvd,Astoria,11105,"['36-21 Ditmars Blvd', 'Astoria, NY 11105']"
474,Pastosa Ravioli,24,5.0,['delivery'],$$$,40.82465,-73.8205259,pastashops,3812 East Tremont Ave,Bronx,10465,"['3812 East Tremont Ave', 'Bronx, NY 10465']"
475,Cheeky Sandwiches,1289,4.5,"['pickup', 'delivery']",$,40.7158,-73.99169,sandwiches,35 Orchard St,New York,10002,"['35 Orchard St', 'New York, NY 10002']"
476,Native Noodles,111,4.5,"['pickup', 'delivery']",$$,40.83824104348622,-73.93765379999999,singaporean,2129 Amsterdam Ave,New York,10032,"['2129 Amsterdam Ave', 'New York, NY 10032']"
477,Cafe Mogador,1266,4.5,"['pickup', 'delivery']",$$,40.719747,-73.959993,moroccan,133 Wythe Ave,Brooklyn,11211,"['133 Wythe Ave', 'Brooklyn, NY 11211']"
478,Paula's Soul Cafe,196,3.5,"['pickup', 'delivery']",$$,40.89269,-73.85568,seafood,746 E 233rd St,Bronx,10466,"['746 E 233rd St', 'Bronx, NY 10466']"
479,Cafe d Alsace,1287,4.0,"['pickup', 'delivery']",$$$,40.77942,-73.95084,french,1703 2nd Ave,New York,10128,"['1703 2nd Ave', 'New York, NY 10128']"
480,Fauzia's Heavenly Delights,38,4.5,[],$,40.8264,-73.92115,caribbean,161st St & Sheridan Ave,Bronx,10451,"['161st St & Sheridan Ave', 'Bronx, NY 10451']"
481,Shake Shack,3059,4.0,"['pickup', 'delivery']",$$,40.758412133689,-73.9891822636127,burgers,691 8th Ave,New York,10036,"['691 8th Ave', 'New York, NY 10036']"
482,Ann Clair's Salumeria,68,4.0,"['pickup', 'delivery']",$,40.8498992919922,-73.851676940918,delis,1130 Morris Park Ave,Bronx,10461,"['1130 Morris Park Ave', 'Bronx, NY 10461']"
483,Chip City,688,4.5,"['pickup', 'delivery']",$$,40.7655337630129,-73.9192518515278,coffee,30-06 34th St,Astoria,11103,"['30-06 34th St', 'Astoria, NY 11103']"
484,The French Workshop,1181,4.5,['delivery'],$$,40.765684008587,-73.7716380616753,bakeries,3839 Bell Blvd,Bayside,11361,"['3839 Bell Blvd', 'Bayside, NY 11361']"
485,Smashburger,105,3.5,"['pickup', 'delivery']",$$,40.88446633,-73.90030895,burgers,193 W 237th St,Bronx,10463,"['193 W 237th St', 'Bronx, NY 10463']"
486,BCD Tofu House,522,4.0,"['pickup', 'delivery']",$$,40.849631647668154,-73.97011202825998,korean,1640 Schlosser St,Fort Lee,07024,"['1640 Schlosser St', 'Unit C1', 'Fort Lee, NJ 07024']"
487,Siam Square,128,3.5,"['pickup', 'delivery']",$$,40.8786081,-73.9170971,thai,564 Kappock St,Bronx,10463,"['564 Kappock St', 'Bronx, NY 10463']"
488,Ayza Wine & Chocolate Bar,1940,4.0,"['restaurant_reservation', 'pickup', 'delivery']",$$,40.7471774721074,-73.987011312828,wine_bars,11 W 31st St,New York,10001,"['11 W 31st St', 'New York, NY 10001']"
489,Lobster Place,1405,4.0,"['pickup', 'delivery']",$$,40.7427413905213,-74.0060118057704,seafoodmarkets,75 9th Ave,New York,10011,"['75 9th Ave', 'New York, NY 10011']"
490,Icehouse Cafe Waterfront Restaurant,132,3.5,['delivery'],$$,40.816987135363874,-73.80671108161565,italian,140 Reynolds Ave,Bronx,10465,"['140 Reynolds Ave', 'Bronx, NY 10465']"
491,Catania's Pizzeria & Cafe,37,4.5,"['pickup', 'delivery']",$,40.853683,-73.889304,pizza,2305 Arthur Ave,Bronx,10458,"['2305 Arthur Ave', 'Bronx, NY 10458']"
492,Hahm Ji Bach,1234,4.0,"['pickup', 'delivery']",$$,40.763106,-73.814917,korean,40-11 149th Pl,Flushing,11354,"['40-11 149th Pl', 'Flushing, NY 11354']"
493,Mumbai Masala,242,4.5,"['pickup', 'delivery']",$$,40.82695,-73.94676,indpak,1768 Amsterdam Ave,New York,10031,"['1768 Amsterdam Ave', 'New York, NY 10031']"
494,Very Fresh Noodles,1171,4.5,"['pickup', 'delivery']",$$,40.74207,-74.00565,taiwanese,409 W 15th St,New York,10011,"['409 W 15th St', 'New York, NY 10011']"
495,Momosan Ramen & Sake - New York,1732,4.0,"['pickup', 'delivery']",$$,40.74993,-73.97746,ramen,342 Lexington Ave,New York,10016,"['342 Lexington Ave', 'New York, NY 10016']"
496,Banh Mi Saigon,1557,4.0,[],$,40.7192950325997,-73.9967160153442,vietnamese,198 Grand St,New York,10013,"['198 Grand St', 'New York, NY 10013']"
497,Brewski's,143,3.5,"['pickup', 'delivery']",$$,40.8265599,-73.8224469,bars,3718 E Tremont Ave,Bronx,10465,"['3718 E Tremont Ave', 'Bronx, NY 10465']"
498,Obaltan,414,4.5,"['pickup', 'delivery']",$$$,40.8314694,-73.9829498,korean,799 Abbot Blvd,Fort Lee,07024,"['799 Abbot Blvd', 'Fort Lee, NJ 07024']"
499,China Mia,48,4.0,['delivery'],$,40.8581892,-73.8675759,chinese,2232 White Plains Rd,Bronx,10467,"['2232 White Plains Rd', 'Bronx, NY 10467']"
500,Shanghai 21,1830,4.0,"['pickup', 'delivery']",$$,40.71441,-73.99902,shanghainese,21 Mott St,New York,10013,"['21 Mott St', 'New York, NY 10013']"
501,Santa Fe Grill & Bar,99,3.5,"['pickup', 'delivery']",$$,40.891321,-73.8977337,mexican,6025 Broadway,Bronx,10471,"['6025 Broadway', 'Bronx, NY 10471']"
502,Empire State Building,2082,4.0,[],,40.748448,-73.985669,landmarks,20 W 34th St,New York,10118,"['20 W 34th St', 'New York, NY 10118']"
503,Hatsuhana Sushi Restaurant,1417,4.0,"['pickup', 'delivery']",$$$,40.75703,-73.97692,japanese,17 E 48th St,New York,10017,"['17 E 48th St', 'New York, NY 10017']"
504,Hokkaido Ramen Santouka,718,4.0,"['pickup', 'delivery']",$$,40.81627,-73.97983,ramen,595 River Rd,Edgewater,07020,"['595 River Rd', 'Edgewater, NJ 07020']"
505,Sweet Chick,2132,4.0,"['pickup', 'delivery']",$$,40.718371,-73.95733,southern,164 Bedford Ave,Brooklyn,11211,"['164 Bedford Ave', 'Brooklyn, NY 11211']"
506,El Nuevo Bohio Lechonera,102,3.5,"['pickup', 'delivery']",$$,40.844086,-73.887903,dominican,791 E Tremont Ave,Bronx,10460,"['791 E Tremont Ave', 'Bronx, NY 10460']"
507,Sushi By M,797,4.5,"['restaurant_reservation', 'delivery']",$$$$,40.72659,-73.98873,sushi,300 E 5th St,New York,10003,"['300 E 5th St', 'New York, NY 10003']"
508,Dough,1598,4.0,"['pickup', 'delivery']",$,40.73931,-73.99243,desserts,14 W 19th St,New York,10011,"['14 W 19th St', 'New York, NY 10011']"
509,Cha-An,1839,4.0,['delivery'],$$,40.72947,-73.98813,japanese,230 E 9th St,New York,10003,"['230 E 9th St', 'Fl 2', 'New York, NY 10003']"
510,Game Day Sports Bar,20,5.0,"['pickup', 'delivery']",,40.88350833,-73.90170833,sportsbars,5757 Broadway,Bronx,10463,"['5757 Broadway', 'Bronx, NY 10463']"
511,Grimaldi's Pizzeria,4761,3.5,"['pickup', 'delivery']",$$,40.702583,-73.9932413,pizza,1 Front St,Brooklyn,11201,"['1 Front St', 'Brooklyn, NY 11201']"
512,Jp's City Island,196,3.5,['pickup'],$$$,40.85742,-73.79065,seafood,703 Minnieford Ave,Bronx,10464,"['703 Minnieford Ave', 'Bronx, NY 10464']"
513,Vanessa's Dumpling House,2741,4.0,"['pickup', 'delivery']",$,40.71839,-73.9917399,chinese,118A Eldridge St,New York,10002,"['118A Eldridge St', 'New York, NY 10002']"
514,Pies-n-Thighs,3056,4.0,"['pickup', 'delivery']",$$,40.711191,-73.961424,southern,166 S 4th St,Brooklyn,11211,"['166 S 4th St', 'Brooklyn, NY 11211']"
515,Soba Noodle Azuma,367,4.5,"['pickup', 'delivery']",$$,40.85172,-73.97219,japanese,246 Main St,Fort Lee,07024,"['246 Main St', 'Fort Lee, NJ 07024']"
516,Cookshop,2185,4.0,"['pickup', 'delivery']",$$,40.745731881448236,-74.00540454907613,newamerican,156 10th Ave,New York,10011,"['156 10th Ave', 'New York, NY 10011']"
517,Family's Cafe,51,4.0,"['pickup', 'delivery']",$,40.860625,-73.902116,mexican,2378 Jerome Ave,Bronx,10468,"['2378 Jerome Ave', 'Bronx, NY 10468']"
518,The Modern,1055,4.5,[],$$$$,40.761106128269006,-73.97670872686992,newamerican,9 W 53rd St,New York,10019,"['9 W 53rd St', 'New York, NY 10019']"
519,Patacon Pisao Truck,87,4.5,['pickup'],$,40.861288,-73.920191,foodtrucks,431 W 202nd St,New York,10034,"['431 W 202nd St', 'New York, NY 10034']"
520,Belle Harlem,159,4.5,['delivery'],$$$,40.8173,-73.94171,newamerican,2363 Adam Clayton Powell Blvd,New York,10030,"['2363 Adam Clayton Powell Blvd', 'New York, NY 10030']"
521,Utopia Bagels,794,4.0,"['pickup', 'delivery']",$,40.7798968356453,-73.7930051609874,bakeries,1909 Utopia Pkwy,Whitestone,11357,"['1909 Utopia Pkwy', 'Whitestone, NY 11357']"
522,Vesta,723,4.5,"['pickup', 'delivery']",$$,40.76961,-73.92776,italian,21-02 30th Ave,Astoria,11102,"['21-02 30th Ave', 'Astoria, NY 11102']"
523,DOMODOMO - New York,1356,4.5,['delivery'],$$$,40.7280299,-74.00167,japanese,140 W Houston St,New York,10012,"['140 W Houston St', 'New York, NY 10012']"
524,Shu Jiao Fu Zhou Cuisine Restaurant,1002,4.5,"['pickup', 'delivery']",$,40.7174109,-73.9920876,chinese,295 Grand St,New York,10002,"['295 Grand St', 'New York, NY 10002']"
525,Los Mariscos,687,4.5,"['pickup', 'delivery']",$,40.74207,-74.00565,seafood,409 W 15th St,New York,10011,"['409 W 15th St', 'New York, NY 10011']"
526,Estrellita Poblana II,135,3.5,"['pickup', 'delivery']",$$,40.8670645863417,-73.8675294497723,mexican,2819 White Plains Rd,Bronx,10467,"['2819 White Plains Rd', 'Bronx, NY 10467']"
527,Cap't Loui,349,4.5,"['pickup', 'delivery']",$$,40.85116,-73.970674,cajun,210 Main St,Fort Lee,07024,"['210 Main St', 'Fort Lee, NJ 07024']"
528,Vida Verde,1325,4.5,"['pickup', 'delivery']",$$,40.7649503286729,-73.9828372257363,cocktailbars,248 W 55th St,New York,10019,"['248 W 55th St', 'New York, NY 10019']"
529,L'industrie Pizzeria,674,4.5,['delivery'],$,40.71162,-73.95783,pizza,254 S 2nd St,Brooklyn,11211,"['254 S 2nd St', 'Brooklyn, NY 11211']"
530,Babbalucci,439,4.0,"['pickup', 'delivery']",$$,40.80894,-73.94496,italian,331 Lenox Ave,New York,10027,"['331 Lenox Ave', 'New York, NY 10027']"
531,Paulie Gee's,1306,4.5,['delivery'],$$,40.729546,-73.958568,pizza,60 Greenpoint Ave,Brooklyn,11222,"['60 Greenpoint Ave', 'Brooklyn, NY 11222']"
532,BCD Tofu House,2212,4.0,[],$$,40.747509,-73.986079,korean,5W 32nd St,New York,10001,"['5W 32nd St', 'New York, NY 10001']"
533,Martha’s Country Bakery,2289,4.0,"['pickup', 'delivery']",$$,40.72038,-73.84604,bakeries,70-28 Austin St,Forest Hills,11375,"['70-28 Austin St', 'Forest Hills, NY 11375']"
534,Gyu-Kaku Japanese BBQ,679,4.5,"['pickup', 'delivery']",$$,40.758159,-73.829822,bbq,4052 Main St,Flushing,11354,"['4052 Main St', 'Flushing, NY 11354']"
535,Earl's Beer & Cheese,609,4.5,"['pickup', 'delivery']",$$,40.78729,-73.95152,bars,1259 Park Ave,New York,10029,"['1259 Park Ave', 'New York, NY 10029']"
536,Ollin Restaurant,439,4.5,"['pickup', 'delivery']",$$,40.7912288,-73.9395386,mexican,339 E 108th St,New York,10029,"['339 E 108th St', 'New York, NY 10029']"
537,Joe's Pizza,1452,4.0,"['pickup', 'delivery']",$,40.7547,-73.98696,pizza,1435 Broadway,New York,10018,"['1435 Broadway', 'New York, NY 10018']"
538,Tanoshi Sushi Sake Bar,743,4.5,['restaurant_reservation'],$$$$,40.767568,-73.952815,sushi,1372 York Ave,New York,10021,"['1372 York Ave', 'New York, NY 10021']"
539,DeStefano's Steakhouse,916,4.5,"['restaurant_reservation', 'delivery']",$$$,40.71462413989243,-73.9497399,steak,593 Lorimer St,Brooklyn,11211,"['593 Lorimer St', 'Brooklyn, NY 11211']"
540,Moon Thai Kitchen,49,4.0,"['pickup', 'delivery']",,40.88711,-73.90471,thai,438 W 238th St,Bronx,10463,"['438 W 238th St', 'Bronx, NY 10463']"
541,Tres Leches Cafe - Harlem,161,5.0,"['pickup', 'delivery']",$,40.7935241,-73.937801,bakeries,356 E 112th St,New York,10029,"['356 E 112th St', 'New York, NY 10029']"
542,Riverdale Pie Guys,105,4.0,"['pickup', 'delivery']",$$,40.9053307,-73.8978577,pizza,5784 Mosholu Ave,Bronx,10471,"['5784 Mosholu Ave', 'Bronx, NY 10471']"
543,Ponty Bistro,444,4.0,"['pickup', 'delivery']",$$,40.8175925,-73.9412695,french,2375 Adam Clayton Powell Blvd,New York,10030,"['2375 Adam Clayton Powell Blvd', 'New York, NY 10030']"
544,Nana's Kitchen,29,4.5,"['pickup', 'delivery']",,40.84905,-73.85498,mediterranean,1809 Hone Ave,Bronx,10461,"['1809 Hone Ave', 'Bronx, NY 10461']"
545,Breads Bakery,1110,4.5,"['pickup', 'delivery']",$,40.73661,-73.99181,bakeries,18 E 16th St,New York,10003,"['18 E 16th St', 'New York, NY 10003']"
546,Ruby's Cafe,1427,4.0,"['pickup', 'delivery']",$$,40.7223288,-73.996326,burgers,219 Mulberry St,New York,10012,"['219 Mulberry St', 'New York, NY 10012']"
547,Concourse Jamaica Bakery,35,4.5,[],$,40.83312,-73.91437,bakeries,1189 Morris Avenue,Bronx,10456,"['1189 Morris Avenue', 'Bronx, NY 10456']"
548,G & R Deli,43,4.5,[],$,40.853057,-73.853103,delis,1928 Williamsbridge Rd,Bronx,10461,"['1928 Williamsbridge Rd', 'Bronx, NY 10461']"
549,Aji Sushi House,472,4.5,"['pickup', 'delivery']",$$,40.7742004394531,-73.9079513549805,sushi,3606 Ditmars Blvd,Astoria,11105,"['3606 Ditmars Blvd', 'Astoria, NY 11105']"
550,Fish Cheeks,978,4.5,"['pickup', 'delivery']",$$,40.7258,-73.9927,seafood,55 Bond St,New York,10012,"['55 Bond St', 'New York, NY 10012']"
551,Sweet Afton,1106,4.0,"['pickup', 'delivery']",$$,40.765352,-73.918983,bars,30-09 34th St,Astoria,11103,"['30-09 34th St', 'Astoria, NY 11103']"
552,Babbo,2493,4.0,"['pickup', 'delivery']",$$$$,40.732283,-73.999284,italian,110 Waverly Pl,New York,10011,"['110 Waverly Pl', 'New York, NY 10011']"
553,Loretta's Pizza,64,4.0,"['pickup', 'delivery']",$,40.835792,-73.818,pizza,3276 Layton Ave,Bronx,10465,"['3276 Layton Ave', 'Bronx, NY 10465']"
554,La Contenta,826,4.5,"['pickup', 'delivery']",$$,40.71873,-73.98691,mexican,102 Norfolk St,New York,10002,"['102 Norfolk St', 'New York, NY 10002']"
555,Shake Shack,1388,4.0,"['pickup', 'delivery']",$$,40.779027905182076,-73.95495587389705,burgers,154 E 86th St,New York,10028,"['154 E 86th St', 'New York, NY 10028']"
556,Astoria Park,290,4.5,[],,40.7791134274821,-73.9225742869463,parks,19 19th St,Astoria,11105,"['19 19th St', 'Astoria, NY 11105']"
557,Spot Dessert Bar,761,4.0,"['pickup', 'delivery']",$$,40.75924,-73.8326,desserts,39-16 Prince St,Flushing,11354,"['39-16 Prince St', 'Flushing, NY 11354']"
558,il laboratorio del gelato,1341,4.0,"['pickup', 'delivery']",$,40.7222353582629,-73.9870632693115,icecream,188 Ludlow St,New York,10002,"['188 Ludlow St', 'New York, NY 10002']"
559,Blackbeard Ramen,562,4.5,"['pickup', 'delivery']",$$,40.8243589123235,-73.9876905320009,ramen,607 Gorge Rd,Cliffside Park,07010,"['607 Gorge Rd', 'Cliffside Park, NJ 07010']"
560,La Lanterna Di Vittorio,1551,4.0,"['pickup', 'delivery']",$$,40.73069,-74.00015,italian,129 MacDougal St,New York,10012,"['129 MacDougal St', 'New York, NY 10012']"
561,Enthaice Thai Kitchen,729,4.0,"['pickup', 'delivery']",$$,40.7630889337809,-73.9213237166405,thai,33-20 31st Ave,Astoria,11106,"['33-20 31st Ave', 'Astoria, NY 11106']"
562,New World Mall Food Court,889,4.0,['pickup'],$$,40.7593304514751,-73.8291516155005,food_court,136-20 Roosevelt Ave,Flushing,11354,"['136-20 Roosevelt Ave', 'Flushing, NY 11354']"
563,Toloache 50,2091,4.0,"['pickup', 'delivery']",$$$,40.762227,-73.9856178382696,mexican,251 West 50th St,New York,10012,"['251 West 50th St', 'New York, NY 10012']"
564,Havana Central,2530,4.0,"['pickup', 'delivery', 'restaurant_reservation']",$$,40.75833809808108,-73.98409870613455,cuban,151 W 46th St,New York,10036,"['151 W 46th St', 'New York, NY 10036']"
565,Salento Colombian Coffee & Kitchen,84,4.5,"['pickup', 'delivery']",,40.83786,-73.9386,coffee,2112 Amsterdam Ave,New York,10032,"['2112 Amsterdam Ave', 'New York, NY 10032']"
566,Nona's Pizza,72,4.0,"['pickup', 'delivery']",$,40.910159,-73.902891,italian,6100 Riverdale Ave,Bronx,10471,"['6100 Riverdale Ave', 'Bronx, NY 10471']"
567,White Bear,1056,4.0,['delivery'],$,40.758783,-73.83163,chinese,135-02 Roosevelt Ave,Flushing,11354,"['135-02 Roosevelt Ave', 'Ste 5', 'Flushing, NY 11354']"
568,Loukoumi Taverna,492,4.5,"['pickup', 'delivery']",$$,40.77079,-73.90268,greek,45-07 Ditmars Blvd,Astoria,11105,"['45-07 Ditmars Blvd', 'Astoria, NY 11105']"
569,Prince Tea House,958,4.0,"['pickup', 'delivery']",$$,40.76133,-73.83264,tea,36-39 Prince St,Flushing,11354,"['36-39 Prince St', 'Flushing, NY 11354']"
570,Gallaghers Steakhouse,1387,4.0,"['pickup', 'delivery']",$$$$,40.762876,-73.983837,steak,228 W 52nd St,New York,10019,"['228 W 52nd St', 'New York, NY 10019']"
571,Don Pancho's,136,3.5,"['pickup', 'delivery']",$$,40.8066471932753,-73.9268930759751,steak,43 Bruckner Blvd,West Bronx,10454,"['43 Bruckner Blvd', 'West Bronx, NY 10454']"
572,Meet The Meat,386,4.5,"['pickup', 'delivery']",$$$,40.7769295040115,-73.9214426951538,steak,2392 21st St,Astoria,11105,"['2392 21st St', 'Astoria, NY 11105']"
573,Casa Enrique,1350,4.0,"['pickup', 'delivery']",$$,40.743404338358,-73.954350367693,mexican,5-48 49th Ave,Long Island City,11101,"['5-48 49th Ave', 'Long Island City, NY 11101']"
574,Saigon Kitchen,428,4.0,"['pickup', 'delivery']",$$,40.85266,-73.97141,vietnamese,2024 Center Ave,Fort Lee,07024,"['2024 Center Ave', 'Ste A&L', 'Fort Lee, NJ 07024']"
575,Hummus Kitchen,1035,4.0,"['pickup', 'delivery']",$$,40.7763650431587,-73.9529693360589,mediterranean,1613 2nd Ave,New York,10028,"['1613 2nd Ave', 'New York, NY 10028']"
576,Dear Mama,311,4.5,"['pickup', 'delivery']",$,40.79219,-73.94068,coffee,308 E 109th St,New York,10029,"['308 E 109th St', 'New York, NY 10029']"
577,Sweet Chick,1780,4.0,"['pickup', 'delivery']",$$,40.7217399,-73.98739,southern,178 Ludlow St,New York,10002,"['178 Ludlow St', 'New York, NY 10002']"
578,Brooklyn Bagel & Coffee Company,743,4.5,"['pickup', 'delivery']",$,40.76055,-73.92176,bagels,35-05 Broadway,Astoria,11106,"['35-05 Broadway', 'Astoria, NY 11106']"
579,Brownstone Pancake Factory,1361,3.5,"['pickup', 'delivery']",$$,40.8247034699425,-73.9752793909135,breakfast_brunch,860 River Rd,Edgewater,07020,"['860 River Rd', 'Edgewater, NJ 07020']"
580,Boucherie Union Square,1095,4.5,"['pickup', 'delivery']",$$$,40.73725824850519,-73.9882252705524,steak,225 Park Ave S,New York,10003,"['225 Park Ave S', 'New York, NY 10003']"
581,Ayada Thai,1295,4.0,"['pickup', 'delivery']",$$,40.7433662414551,-73.8876037597656,thai,7708 Woodside Ave,Elmhurst,11373,"['7708 Woodside Ave', 'Elmhurst, NY 11373']"
582,Oso,334,4.0,"['pickup', 'delivery']",$$,40.82195,-73.9502399,mexican,1618 Amsterdam Ave At 140th St,New York,10031,"['1618 Amsterdam Ave At 140th St', 'New York, NY 10031']"
583,Peck Peck Korean Style Chicken,649,4.5,['delivery'],$$,40.875095,-74.021122,chicken_wings,250 Degraw Ave,Teaneck,07666,"['250 Degraw Ave', 'Teaneck, NJ 07666']"
584,99 Favor Taste - New York,1994,4.0,"['pickup', 'delivery']",$$$,40.7176199,-73.99249,chinese,285 Grand St,New York,10002,"['285 Grand St', 'New York, NY 10002']"
585,Beyond Sushi,767,4.5,"['pickup', 'delivery']",$$,40.76331,-73.97717,vegan,62 W 56th St,New York,10019,"['62 W 56th St', 'New York, NY 10019']"
586,Arepas Cafe,956,4.0,"['pickup', 'delivery']",$$,40.755835,-73.927691,venezuelan,3307 36th Ave,Astoria,11106,"['3307 36th Ave', 'Astoria, NY 11106']"
587,Riverdale Diner,342,3.0,"['pickup', 'delivery']",$$,40.8851013183594,-73.901496887207,diners,3657 Kingsbridge Ave,Bronx,10463,"['3657 Kingsbridge Ave', 'Bronx, NY 10463']"
588,Thai Market,1046,4.0,"['pickup', 'delivery']",$$,40.80132,-73.96529,thai,960 Amsterdam Ave,New York,10025,"['960 Amsterdam Ave', 'New York, NY 10025']"
589,El Malecon,189,3.0,"['pickup', 'delivery']",$$,40.879312610463,-73.90434368176884,latin,5592 Broadway,Bronx,10463,"['5592 Broadway', 'Bronx, NY 10463']"
590,Duzan Mediterranean Grill,639,4.0,"['pickup', 'delivery']",$$,40.7684923638382,-73.9111769199371,mideastern,2411 Steinway St,Astoria,11103,"['2411 Steinway St', 'Astoria, NY 11103']"
591,Mingles Express Grill,35,4.5,"['pickup', 'delivery']",,40.883891190256,-73.8322932924236,caribbean,4018 Boston Rd,Bronx,10475,"['4018 Boston Rd', 'Bronx, NY 10475']"
592,Balthazar Bakery,349,4.5,['delivery'],$$,40.88738,-73.9793,bakeries,214 S Dean St,Englewood,07631,"['214 S Dean St', 'Englewood, NJ 07631']"
593,Buvette,1930,4.0,['delivery'],$$,40.732704,-74.00434640955953,french,42 Grove St,New York,10014,"['42 Grove St', 'New York, NY 10014']"
594,Kam Hing Coffee Shop,776,4.5,"['pickup', 'delivery']",$,40.71798,-73.99921,bakeries,118 Baxter St,New York,10013,"['118 Baxter St', 'New York, NY 10013']"
595,Katonah Pizza & Pasta,76,4.0,"['pickup', 'delivery']",$,40.89879,-73.86759,pizza,4307 Katonah Ave,Bronx,10470,"['4307 Katonah Ave', 'Bronx, NY 10470']"
596,Champs Diner,1634,4.0,"['pickup', 'delivery']",$$,40.7084397372605,-73.9407808520115,vegan,197 Meserole St,Brooklyn,11206,"['197 Meserole St', 'Brooklyn, NY 11206']"
597,"Mosaic Craft Cocktail, Beer & Wine Bar",305,4.5,[],$$,40.7746577,-73.9183673,beerbar,25-19 24th Ave,Astoria,11102,"['25-19 24th Ave', 'Astoria, NY 11102']"
598,Mom's Kitchen & Bar,1172,4.5,"['pickup', 'delivery']",$$,40.76247,-73.9901,comfortfood,701 9th Ave,New York,10019,"['701 9th Ave', 'New York, NY 10019']"
599,The Dead Rabbit,1674,4.0,"['pickup', 'delivery']",$$,40.70329,-74.01102,cocktailbars,30 Water St,New York,10004,"['30 Water St', 'New York, NY 10004']"
600,Liberty Bagels Midtown,866,4.5,"['delivery', 'pickup']",$,40.75255,-73.99249,breakfast_brunch,260 W 35th St,New York,10001,"['260 W 35th St', 'New York, NY 10001']"
601,Kin'd,946,4.5,"['delivery', 'pickup']",$$,40.73031,-73.77814,thai,192-03 Union Tpke,Fresh Meadows,11366,"['192-03 Union Tpke', 'Fresh Meadows, NY 11366']"
602,Pizza Italia,45,4.0,['delivery'],$,40.8228,-73.84867,pizza,772 Castle Hill Ave,Bronx,10473,"['772 Castle Hill Ave', 'Bronx, NY 10473']"
603,Pommes Frites,1027,4.5,"['delivery', 'pickup']",$,40.730022,-74.000152,belgian,128 Macdougal St,New York,10012,"['128 Macdougal St', 'New York, NY 10012']"
604,Gyu-Kaku Japanese BBQ,1737,4.0,"['delivery', 'pickup']",$$$,40.72822,-73.99142,japanese,34 Cooper Sq,New York,10003,"['34 Cooper Sq', 'New York, NY 10003']"
605,Milkflower,713,4.5,"['delivery', 'pickup']",$$,40.7628961,-73.9207081,pizza,3412 31st Ave,Astoria,11106,"['3412 31st Ave', 'Astoria, NY 11106']"
606,Bagels and Cream,73,3.5,"['delivery', 'pickup']",$,40.84719,-73.84437,bagels,1728 Eastchester Rd,Bronx,10461,"['1728 Eastchester Rd', 'Bronx, NY 10461']"
607,Jungsik,688,4.5,[],$$$$,40.7188032533572,-74.0090829725856,korean,2 Harrison St,New York,10013,"['2 Harrison St', 'New York, NY 10013']"
608,Hiram's Roadstand,461,4.0,['delivery'],$,40.84179,-73.97473,tradamerican,1345 Palisade Ave,Fort Lee,07024,"['1345 Palisade Ave', 'Fort Lee, NJ 07024']"
609,Pylos,1163,4.5,"['delivery', 'pickup']",$$$,40.72608,-73.98415,greek,128 E 7th St,New York,10009,"['128 E 7th St', 'New York, NY 10009']"
610,Sorriso Italian Pork Store,365,4.5,"['delivery', 'pickup']",$,40.7621401,-73.9116109,meats,4416 30th Ave,Astoria,11103,"['4416 30th Ave', 'Astoria, NY 11103']"
611,District Saigon,686,4.5,"['delivery', 'pickup']",$$,40.7596365,-73.9199343,vietnamese,37-15 Broadway,Astoria,11103,"['37-15 Broadway', 'Astoria, NY 11103']"
612,The Bonnie,726,4.0,"['delivery', 'pickup']",$$,40.7746737,-73.9136003,gastropubs,29-12 23rd Ave,Astoria,11105,"['29-12 23rd Ave', 'Astoria, NY 11105']"
613,Bohemian Restaurant,802,4.5,"['delivery', 'pickup']",$$$,40.72639,-73.99236,japanese,57 Great Jones St,New York,10012,"['57 Great Jones St', 'New York, NY 10012']"
614,The Way Cafe,22,4.5,['delivery'],,40.82805,-73.8505,coffee,1015 Castle Hill Ave,Bronx,10472,"['1015 Castle Hill Ave', 'Bronx, NY 10472']"
615,Tsurutontan Udon Noodle Brasserie,2107,4.0,"['delivery', 'pickup']",$$,40.73678,-73.9910699,japanese,21 E 16th St,New York,10003,"['21 E 16th St', 'New York, NY 10003']"
616,Vitos Gourmet Deli,21,4.5,"['delivery', 'pickup']",$$,40.845561,-73.831657,delis,1715 Crosby Ave,Bronx,10461,"['1715 Crosby Ave', 'Bronx, NY 10461']"
617,Red Bamboo,1762,4.0,"['delivery', 'pickup']",$$,40.7311846,-74.00042619999999,vegetarian,140 W 4th St,New York,10012,"['140 W 4th St', 'Ste A', 'New York, NY 10012']"
618,Manhattanville Coffee,239,4.5,"['delivery', 'pickup']",$,40.821254,-73.944465,cafes,142 Edgecombe Ave,New York,10030,"['142 Edgecombe Ave', 'New York, NY 10030']"
619,Le Chéile,406,4.0,"['delivery', 'pickup']",$$,40.8514803804586,-73.9399689480721,irish,839 W 181st St,New York,10033,"['839 W 181st St', 'New York, NY 10033']"
620,National Restaurant & Coffee Shop,68,4.0,"['delivery', 'pickup']",$,40.8729995,-73.8891447,diners,8 Bedford Park Blvd E,Bronx,10468,"['8 Bedford Park Blvd E', 'Bronx, NY 10468']"
621,Ootoya Chelsea,1456,4.0,"['restaurant_reservation', 'delivery', 'pickup']",$$,40.73881,-73.99279,sushi,8 W 18th St,New York,10011,"['8 W 18th St', 'New York, NY 10011']"
622,Mike's Bagels,222,4.0,"['delivery', 'pickup']",$,40.84136,-73.93987,bagels,4003 Broadway,New York,10032,"['4003 Broadway', 'New York, NY 10032']"
623,Taste & Sabor,56,4.0,"['delivery', 'pickup']",,40.88099,-73.90896,spanish,318 W 231st St,Bronx,10463,"['318 W 231st St', 'Bronx, NY 10463']"
624,Little Collins,932,4.5,"['delivery', 'pickup']",$$,40.75233,-73.97353,coffee,708 3rd Ave,New York,10017,"['708 3rd Ave', 'New York, NY 10017']"
625,The Dugout,60,4.0,[],$,40.828361,-73.925178,sportsbars,880 River Ave,Bronx,10452,"['880 River Ave', 'Ste D', 'Bronx, NY 10452']"
626,Becco,2936,3.5,"['delivery', 'pickup']",$$$,40.76083,-73.98981,italian,355 W 46th St,New York,10036,"['355 W 46th St', 'New York, NY 10036']"
