,name,review_count,rating,price,latitude,longitude,alias,address1,city,zip_code,display_address
0,The Halal Guys,9806,4.0,$,40.761861,-73.979306,foodstands,W 53rd Street And 6th Ave,New York,10019,"['W 53rd Street And 6th Ave', 'New York, NY 10019']"
1,Levain Bakery,8794,4.5,$$,40.779961,-73.980299,bakeries,167 W 74th St,New York,10023,"['167 W 74th St', 'New York, NY 10023']"
2,Best Bagel & Coffee,3856,4.5,$,40.7522683,-73.9910861,bagels,225 W 35th St,New York,10001,"['225 W 35th St', 'New York, NY 10001']"
3,Le Bernardin,2674,4.5,$$$$,40.761557,-73.981763,french,155 W 51st St,New York,10019,"['155 W 51st St', 'The Equitable Bldg', 'New York, NY 10019']"
4,Los Tacos No.1,2192,4.5,$,40.7575067,-73.9877717,tacos,229 W 43rd St,New York,10036,"['229 W 43rd St', 'New York, NY 10036']"
5,Ippudo NY,10217,4.0,$$,40.73092,-73.99015,ramen,65 4th Ave,New York,10003,"['65 4th Ave', 'New York, NY 10003']"
6,Bengal Tiger Indian Food,2089,4.5,$$,40.763167,-73.977131,indpak,58 W 56th St,New York,10019,"['58 W 56th St', 'Fl 2', 'New York, NY 10019']"
7,Daniel,1722,4.5,$$$$,40.7667736797858,-73.967607,french,60 E 65th St,New York,10065,"['60 E 65th St', 'New York, NY 10065']"
8,Del Frisco's Double Eagle Steakhouse,3207,4.0,$$$$,40.759412,-73.982221,steak,1221 Ave Of The Americas,New York,10020,"['1221 Ave Of The Americas', 'New York, NY 10020']"
9,Ippudo Westside,3842,4.0,$$,40.76344,-73.98661,ramen,321 W 51st St,New York,10019,"['321 W 51st St', 'New York, NY 10019']"
10,Up Thai,2621,4.5,$$,40.7698275926665,-73.9576330868512,thai,1411 2nd Ave,New York,10021,"['1411 2nd Ave', 'New York, NY 10021']"
11,Anytime Kitchen ,2010,4.5,$$,40.74776270790539,-73.9867793576711,korean,23 W 32nd St,New York,10001,"['23 W 32nd St', 'Fl 3', 'New York, NY 10001']"
12,Burger & Lobster - Flatiron NYC,5590,4.0,$$,40.74007,-73.99344,seafood,39 W 19th St,New York,10011,"['39 W 19th St', 'New York, NY 10011']"
13,Gramercy Tavern,3071,4.5,$$$$,40.73844,-73.98825,newamerican,42 E 20th St,New York,10003,"['42 E 20th St', 'New York, NY 10003']"
14,Per Se,1734,4.5,$$$$,40.7681528889558,-73.9827629623657,french,10 Columbus Cir,New York,10019,"['10 Columbus Cir', 'Fl 4', 'New York, NY 10019']"
15,The Smith,2870,4.0,$$,40.755165,-73.967868,newamerican,956 2nd Ave,New York,10022,"['956 2nd Ave', 'New York, NY 10022']"
16,Izakaya MEW,2574,4.0,$$,40.750148,-73.9863203465939,tapas,53 W 35th St,New York,10001,"['53 W 35th St', 'New York, NY 10001']"
17,Sea Fire Grill,1369,4.5,$$$,40.75471270266935,-73.97222533963885,seafood,158 E 48th St,New York,10017,"['158 E 48th St', 'New York, NY 10017']"
18,Shake Shack,5662,4.0,$$,40.74212,-73.98707,burgers,E 23rd St Madison Ave,New York,10010,"['E 23rd St Madison Ave', 'Madison Square Park', 'New York, NY 10010']"
19,Ladurée Madison,1959,4.5,$$$,40.7707702252517,-73.9663760711639,macarons,864 Madison Ave,New York,10021,"['864 Madison Ave', 'New York, NY 10021']"
20,Carmine's Italian Restaurant - Times Square,3986,4.0,$$,40.75749,-73.98662,italian,200 W 44th St,New York,10036,"['200 W 44th St', 'New York, NY 10036']"
21,THEP Thai Restaurant,1748,4.5,$$,40.77078,-73.95727,thai,1439 2nd Ave,New York,10021,"['1439 2nd Ave', 'New York, NY 10021']"
22,Sushi Yasuda,2180,4.0,$$$$,40.75113,-73.97347,sushi,204 E 43rd St,New York,10017,"['204 E 43rd St', 'New York, NY 10017']"
23,Dutch Freds,1750,4.5,$$,40.760835,-73.987823,cocktailbars,307 W 47th St,New York,10036,"['307 W 47th St', 'New York, NY 10036']"
24,Pure Thai Cookhouse,2681,4.0,$$,40.764291,-73.988159,thai,766 9th Ave,New York,10019,"['766 9th Ave', 'New York, NY 10019']"
25,Jean-Georges,1935,4.0,$$$$,40.7691122743293,-73.9814290717583,french,1 Central Park W,New York,10023,"['1 Central Park W', 'New York, NY 10023']"
26,Eataly NYC Flatiron,5792,4.0,$$,40.74200824886595,-73.98993910744127,italian,200 5th Ave,New York,10010,"['200 5th Ave', 'New York, NY 10010']"
27,Marea,2210,4.0,$$$$,40.7674213694566,-73.9810554368179,italian,240 Central Park S,New York,10019,"['240 Central Park S', 'New York, NY 10019']"
28,Keens Steakhouse,2790,4.0,$$$$,40.75071,-73.98652,steak,72 W 36th St,New York,10018,"['72 W 36th St', 'New York, NY 10018']"
29,Eleven Madison Park,2272,4.5,$$$$,40.7416907417333,-73.9872074872255,newamerican,11 Madison Ave,New York,10010,"['11 Madison Ave', 'New York, NY 10010']"
30,Tanner Smiths,1873,4.5,$$,40.76442,-73.98169,cocktailbars,204 W 55th St,New York,10019,"['204 W 55th St', 'New York, NY 10019']"
31,Quality Meats,2085,4.0,$$$$,40.764958,-73.976206,steak,57 W 58th St,New York,10019,"['57 W 58th St', 'New York, NY 10019']"
32,Trattoria Trecolori,2468,4.0,$$,40.759876,-73.986767,italian,254 West 47th St,New York,10036,"['254 West 47th St', 'New York, NY 10036']"
33,The Modern,1055,4.5,$$$$,40.761106128269006,-73.97670872686992,newamerican,9 W 53rd St,New York,10019,"['9 W 53rd St', 'New York, NY 10019']"
34,Bea,2601,4.0,$$,40.7591968,-73.9923361,newamerican,403 W 43rd St,New York,10036,"['403 W 43rd St', 'New York, NY 10036']"
35,B Side Pizza & Wine Bar,1200,4.5,$$,40.76388,-73.98821,pizza,370 W 51st St,New York,10019,"['370 W 51st St', 'New York, NY 10019']"
36,KazuNori  | The Original Hand Roll Bar,1184,4.5,$$,40.74519,-73.98824,sushi,15 W 28th St,New York,10001,"['15 W 28th St', 'New York, NY 10001']"
37,Buddakan,4258,4.0,$$$$,40.7422762672197,-74.0048000961542,chinese,75 9th Ave,New York,10011,"['75 9th Ave', 'New York, NY 10011']"
38,Jongro BBQ,2236,4.0,$$,40.747514,-73.986884,korean,22 W 32nd St,New York,10001,"['22 W 32nd St', 'Fl 2', 'New York, NY 10001']"
39,Calle Dao - Bryant Park,1799,4.0,$$,40.75222,-73.98420351,cuban,38 W 39th St,New York,10018,"['38 W 39th St', 'New York, NY 10018']"
40,Prince Street Pizza,4276,4.5,$,40.72308755605564,-73.99453001177575,pizza,27 Prince St,New York,10012,"['27 Prince St', 'New York, NY 10012']"
41,Schmackary's,2091,4.0,$,40.760153883881,-73.990944257291,desserts,362 W 45th St,New York,10036,"['362 W 45th St', 'New York, NY 10036']"
42,Empanada Mama - Hell's Kitchen,2704,4.0,$$,40.76441,-73.9885,latin,765 9th Ave,New York,10019,"['765 9th Ave', 'New York, NY 10019']"
43,L'Artusi,2037,4.5,$$$,40.73372,-74.00513,italian,228 W 10th St,New York,10014,"['228 W 10th St', 'New York, NY 10014']"
44,Molly's Cupcakes,1749,4.5,$$,40.73014,-74.00248,bakeries,228 Bleecker St,New York,10014,"['228 Bleecker St', 'New York, NY 10014']"
45,Rice To Riches,3116,4.0,$$,40.721845,-73.995802,desserts,37 Spring St,New York,10012,"['37 Spring St', 'New York, NY 10012']"
46,Traif,1938,4.5,$$$$,40.710658,-73.958872,newamerican,229 S 4th St,Brooklyn,11211,"['229 S 4th St', 'Brooklyn, NY 11211']"
47,Thursday Kitchen,1557,4.5,$$,40.72761,-73.98373,korean,424 E 9th St,New York,10009,"['424 E 9th St', 'New York, NY 10009']"
48,Eileen's Special Cheesecake,1779,4.5,$,40.7215431969029,-73.9972332037048,bakeries,17 Cleveland Pl,New York,10012,"['17 Cleveland Pl', 'New York, NY 10012']"
49,ABC Kitchen,3072,4.0,$$$,40.737916,-73.989488,breakfast_brunch,35 E 18th St,New York,10003,"['35 E 18th St', 'New York, NY 10003']"
50,Beauty & Essex,3641,4.0,$$$,40.720434786101286,-73.98686057623863,newamerican,146 Essex St,New York,10002,"['146 Essex St', 'New York, NY 10002']"
51,Mamoun's Falafel,2486,4.0,$,40.7302874,-74.0004383,mideastern,119 MacDougal St,New York,10012,"['119 MacDougal St', 'New York, NY 10012']"
52,Boucherie West Village,1983,4.5,$$$,40.733063,-74.0028772,french,99 7th Ave S,New York,10014,"['99 7th Ave S', 'New York, NY 10014']"
53,Top Thai Greenwich,1688,4.5,$$,40.729771,-73.999392,thai,235 Sullivan St,New York,10012,"['235 Sullivan St', 'New York, NY 10012']"
54,Cafe Habana,3211,4.0,$$,40.722998,-73.994171,cuban,17 Prince St,New York,10012,"['17 Prince St', 'New York, NY 10012']"
55,Alimama,1520,4.5,$$,40.715768,-73.9992981,desserts,89A Bayard St,New York,10013,"['89A Bayard St', 'New York, NY 10013']"
56,Soft Swerve,1687,4.5,$$,40.718201,-73.991247,icecream,85B Allen St,New York,10002,"['85B Allen St', 'New York, NY 10002']"
57,Ess-a-Bagel,3950,4.0,$,40.756300559255,-73.9703701025162,bakeries,831 3rd Ave,New York,10022,"['831 3rd Ave', 'New York, NY 10022']"
58,Ample Hills Creamery,1509,4.5,$$,40.6786123071501,-73.9681703184027,icecream,623 Vanderbilt Ave,Brooklyn,11238,"['623 Vanderbilt Ave', 'Brooklyn, NY 11238']"
59,Joe's Pizza,2780,4.0,$,40.73060076,-74.00215997,pizza,7 Carmine St,New York,10014,"['7 Carmine St', 'New York, NY 10014']"
60,The Boil,1992,4.0,$$,40.71974,-73.99339,cajun,139 Chrystie St,New York,10002,"['139 Chrystie St', 'New York, NY 10002']"
61,Raku,1302,4.5,$$,40.7264988089246,-73.9866526052356,japanese,342 E 6th St,New York,10003,"['342 E 6th St', 'New York, NY 10003']"
62,Balthazar,3317,4.0,$$$,40.7226892950401,-73.9982149184027,french,80 Spring St,New York,10012,"['80 Spring St', 'New York, NY 10012']"
63,Sugar Sweet Sunshine Bakery,2099,4.0,$,40.719851,-73.987011,bakeries,126 Rivington St,New York,10002,"['126 Rivington St', 'New York, NY 10002']"
64,Saigon Shack,2543,4.0,$$,40.72969,-74.000629,vietnamese,114 Macdougal St,New York,10012,"['114 Macdougal St', 'New York, NY 10012']"
65,Milk & Cream Cereal Bar,1085,4.5,$$,40.71958,-73.99654,icecream,159 Mott St,New York,10013,"['159 Mott St', 'New York, NY 10013']"
66,Artichoke Basille's Pizza,4062,4.0,$,40.7321124557704,-73.9839056828882,pizza,321 E 14th St,New York,10003,"['321 E 14th St', 'New York, NY 10003']"
67,Jane Restaurant,3330,4.0,$$,40.7273779,-74.00025,breakfast_brunch,100 W Houston St,New York,10012,"['100 W Houston St', 'New York, NY 10012']"
68,NY Pizza Suprema,2199,4.0,$,40.7502059936523,-73.9953231811523,pizza,413 8th Ave,New York,10001,"['413 8th Ave', 'New York, NY 10001']"
69,Barn Joo 35,2179,4.0,$$,40.74964,-73.98582,korean,34 W 35th St,New York,10001,"['34 W 35th St', 'New York, NY 10001']"
70,The Alcove,983,5.0,$$,40.7459065,-73.915103,gastropubs,41-11 49th St,Sunnyside,11104,"['41-11 49th St', 'Sunnyside, NY 11104']"
71,Wafels & Dinges,1528,4.5,$,40.7392845153809,-73.9989318847656,waffles,,New York,10011,"['New York, NY 10011']"
72,Tonchin,1552,4.5,$$,40.7502727,-73.9844951,ramen,13 W 36th St,New York,10018,"['13 W 36th St', 'New York, NY 10018']"
73,taïm mediterranean kitchen - West Village,1549,4.5,$$,40.736002376347,-74.0019588366439,falafel,222 Waverly Pl,New York,10014,"['222 Waverly Pl', 'New York, NY 10014']"
74,Bleecker Street Pizza,2564,4.0,$,40.7320627016512,-74.0036552270137,pizza,69 7th Ave S,New York,10014,"['69 7th Ave S', 'New York, NY 10014']"
75,La Sirène-Soho,1658,4.5,$$$,40.7243642217227,-74.005708694458,french,558 Broome St,New York,10013,"['558 Broome St', 'New York, NY 10013']"
76,JoJu,1818,4.5,$,40.7407051700423,-73.8793501821476,coffee,83-25 Broadway,Elmhurst,11373,"['83-25 Broadway', 'Elmhurst, NY 11373']"
77,John's of Bleecker Street,2243,4.0,$$,40.73158,-74.00332,pizza,278 Bleecker St,New York,10014,"['278 Bleecker St', 'New York, NY 10014']"
78,Jajaja Mexicana,1094,4.5,$$,40.71419,-73.99041,mexican,162 E Broadway,New York,10002,"['162 E Broadway', 'New York, NY 10002']"
79,McSorleys Old Ale House,1846,4.5,$,40.72884,-73.98965,divebars,15 E 7th St,New York,10003,"['15 E 7th St', 'New York, NY 10003']"
80,"Sal, Kris, & Charlie's Deli",1263,4.5,$$,40.773326878163,-73.9113807678223,delis,33-12 23rd Ave,Astoria,11105,"['33-12 23rd Ave', 'Astoria, NY 11105']"
81,Breakroom,1637,4.5,$$,40.7166907225542,-73.9999440120647,burgers,83 Baxter St,New York,10013,"['83 Baxter St', 'New York, NY 10013']"
82,Roberta's,3077,4.0,$$,40.70493,-73.93399,pizza,261 Moore St,Brooklyn,11206,"['261 Moore St', 'Brooklyn, NY 11206']"
83,Sushi Nakazawa,1552,4.5,$$$$,40.7317465228689,-74.0045493828034,japanese,23 Commerce St,New York,10014,"['23 Commerce St', 'New York, NY 10014']"
84,Sundaes and Cones,1545,4.5,$$,40.730934,-73.989318,icecream,95 E 10th St,New York,10003,"['95 E 10th St', 'New York, NY 10003']"
85,ilili,2541,4.0,$$$,40.74435,-73.98778,mediterranean,236 5th Ave,New York,10001,"['236 5th Ave', 'New York, NY 10001']"
86,Taverna Kyclades,2496,4.0,$$,40.77444,-73.90786,seafood,3601 Ditmars Blvd,Astoria,11105,"['3601 Ditmars Blvd', 'Astoria, NY 11105']"
87,Veniero's,2213,4.0,$$,40.729431,-73.984541,bakeries,342 E 11th St,New York,10003,"['342 E 11th St', 'New York, NY 10003']"
88,Woorijip,2726,4.0,$,40.74747,-73.98648,korean,12 W 32nd St,New York,10001,"['12 W 32nd St', 'New York, NY 10001']"
89,Tony's Di Napoli,2279,4.0,$$,40.75641,-73.98547,italian,147 W 43rd St,New York,10036,"['147 W 43rd St', 'New York, NY 10036']"
90,Grimaldi's Pizzeria,4761,3.5,$$,40.702583,-73.9932413,pizza,1 Front St,Brooklyn,11201,"['1 Front St', 'Brooklyn, NY 11201']"
91,Peter Pan Donut & Pastry Shop,1457,4.5,$,40.726086,-73.952308,bakeries,727 Manhattan Ave,Brooklyn,11222,"['727 Manhattan Ave', 'Brooklyn, NY 11222']"
92,Cheeky Sandwiches,1289,4.5,$,40.7158,-73.99169,sandwiches,35 Orchard St,New York,10002,"['35 Orchard St', 'New York, NY 10002']"
93,Coffee Project New York | East Village,718,4.5,$,40.72699,-73.98922,coffee,239 E 5th St,New York,10003,"['239 E 5th St', 'New York, NY 10003']"
94,Max Brenner - New York,4824,3.5,$$,40.7342670594805,-73.9910549187747,desserts,841 Broadway,New York,10003,"['841 Broadway', 'New York, NY 10003']"
95,Shanghai 21,1830,4.0,$$,40.71441,-73.99902,shanghainese,21 Mott St,New York,10013,"['21 Mott St', 'New York, NY 10013']"
96,Minetta Tavern,2305,4.0,$$$,40.7300047976758,-74.0006073834151,french,113 Macdougal St,New York,10012,"['113 Macdougal St', 'New York, NY 10012']"
97,Raines Law Room,1514,4.5,$$$,40.73879,-73.99455,lounges,48 W 17th St,New York,10011,"['48 W 17th St', 'New York, NY 10011']"
98,Gotham Restaurant,1619,4.0,$$$$,40.734186,-73.993696,newamerican,12 E 12th St,New York,10003,"['12 E 12th St', 'New York, NY 10003']"
99,Bogota Latin Bistro,2369,4.0,$$,40.678165,-73.978976,bars,141 5th Ave,Brooklyn,11217,"['141 5th Ave', 'Brooklyn, NY 11217']"
100,Scarpetta,2079,4.0,$$$,40.744509,-73.9856,italian,88 Madison Ave,New York,10016,"['88 Madison Ave', 'New York, NY 10016']"
101,Veselka,2803,4.0,$$,40.729036,-73.98712,diners,144 2nd Ave,New York,10003,"['144 2nd Ave', 'New York, NY 10003']"
102,Sakagura,1806,4.0,$$$$,40.7516467024541,-73.9729489318165,japanese,211 E 43rd St,New York,10017,"['211 E 43rd St', 'New York, NY 10017']"
103,Di Fara Pizza,3739,4.0,$$,40.625093,-73.961531,pizza,1424 Ave J,Brooklyn,11230,"['1424 Ave J', 'Brooklyn, NY 11230']"
104,Banh Mi Saigon,1557,4.0,$,40.7192950325997,-73.9967160153442,vietnamese,198 Grand St,New York,10013,"['198 Grand St', 'New York, NY 10013']"
105,Cafe Mogador,2004,4.0,$$,40.727258767439,-73.9845085144043,moroccan,101 St Marks Pl,New York,10009,"['101 St Marks Pl', 'New York, NY 10009']"
106,City Cakes,856,4.5,$$,40.74078,-73.99695,desserts,155 W 18th St,New York,10011,"['155 W 18th St', 'New York, NY 10011']"
107,OBAO,3224,4.0,$$,40.7606544,-73.991332,vietnamese,647 9th Ave,New York,10036,"['647 9th Ave', 'New York, NY 10036']"
108,Lucali,1772,4.0,$$,40.6818,-74.00024,pizza,575 Henry St,Brooklyn,11231,"['575 Henry St', 'Brooklyn, NY 11231']"
109,Vanessa's Dumpling House,2741,4.0,$,40.71839,-73.9917399,chinese,118A Eldridge St,New York,10002,"['118A Eldridge St', 'New York, NY 10002']"
110,Her Name Is Han,1485,4.5,$$,40.7462615966797,-73.984733581543,korean,17 E 31st St,New York,10016,"['17 E 31st St', 'New York, NY 10016']"
111,Brooklyn Bagel & Coffee Company,1646,4.0,$,40.746183,-73.997642,bagels,286 8th Ave,New York,10001,"['286 8th Ave', 'New York, NY 10001']"
112,Shu Jiao Fu Zhou Cuisine Restaurant,1002,4.5,$,40.7174109,-73.9920876,chinese,295 Grand St,New York,10002,"['295 Grand St', 'New York, NY 10002']"
113,The Dead Rabbit,1674,4.0,$$,40.70329,-74.01102,cocktailbars,30 Water St,New York,10004,"['30 Water St', 'New York, NY 10004']"
114,Williamsburg Smorgasburg - Saturday,1141,4.5,$$,40.721021,-73.962177,foodstands,90 Kent Ave,Brooklyn,11211,"['90 Kent Ave', 'East River State Park', 'Brooklyn, NY 11211']"
115,Sushi By M,797,4.5,$$$$,40.72659,-73.98873,sushi,300 E 5th St,New York,10003,"['300 E 5th St', 'New York, NY 10003']"
116,Cafe Mogador,1266,4.5,$$,40.719747,-73.959993,moroccan,133 Wythe Ave,Brooklyn,11211,"['133 Wythe Ave', 'Brooklyn, NY 11211']"
117,Friedman's,2607,4.0,$$,40.74839,-73.99062,newamerican,132 W 31st St,New York,10001,"['132 W 31st St', 'New York, NY 10001']"
118,DOMODOMO - New York,1356,4.5,$$$,40.7280299,-74.00167,japanese,140 W Houston St,New York,10012,"['140 W Houston St', 'New York, NY 10012']"
119,Pies-n-Thighs,3056,4.0,$$,40.711191,-73.961424,southern,166 S 4th St,Brooklyn,11211,"['166 S 4th St', 'Brooklyn, NY 11211']"
120,Ruby's Cafe,1427,4.0,$$,40.7223288,-73.996326,burgers,219 Mulberry St,New York,10012,"['219 Mulberry St', 'New York, NY 10012']"
121,Cha-An,1839,4.0,$$,40.72947,-73.98813,japanese,230 E 9th St,New York,10003,"['230 E 9th St', 'Fl 2', 'New York, NY 10003']"
122,La Contenta,826,4.5,$$,40.71873,-73.98691,mexican,102 Norfolk St,New York,10002,"['102 Norfolk St', 'New York, NY 10002']"
123,Luke's Lobster FiDi,1201,4.5,$$,40.7046213003984,-74.0107793876969,seafood,26 S William St,New York,10004,"['26 S William St', 'New York, NY 10004']"
124,Stumptown Coffee Roasters,1404,4.5,$$,40.7456663381275,-73.9880916348562,coffee,20 W 29th St,New York,10001,"['20 W 29th St', 'The Ace Hotel', 'New York, NY 10001']"
125,99 Favor Taste - New York,1994,4.0,$$$,40.7176199,-73.99249,chinese,285 Grand St,New York,10002,"['285 Grand St', 'New York, NY 10002']"
126,Kam Hing Coffee Shop,776,4.5,$,40.71798,-73.99921,bakeries,118 Baxter St,New York,10013,"['118 Baxter St', 'New York, NY 10013']"
127,Sushi Yasaka,1875,4.0,$$,40.779583,-73.983482,japanese,251 W 72nd St,New York,10023,"['251 W 72nd St', 'New York, NY 10023']"
128,Lobster Place,1405,4.0,$$,40.7427413905213,-74.0060118057704,seafoodmarkets,75 9th Ave,New York,10011,"['75 9th Ave', 'New York, NY 10011']"
129,Uva,2552,4.0,$$$,40.7722,-73.95566,italian,1486 2nd Ave,New York,10075,"['1486 2nd Ave', 'New York, NY 10075']"
130,il laboratorio del gelato,1341,4.0,$,40.7222353582629,-73.9870632693115,icecream,188 Ludlow St,New York,10002,"['188 Ludlow St', 'New York, NY 10002']"
131,L'industrie Pizzeria,674,4.5,$,40.71162,-73.95783,pizza,254 S 2nd St,Brooklyn,11211,"['254 S 2nd St', 'Brooklyn, NY 11211']"
132,Fish Cheeks,978,4.5,$$,40.7258,-73.9927,seafood,55 Bond St,New York,10012,"['55 Bond St', 'New York, NY 10012']"
133,Sweet Chick,2132,4.0,$$,40.718371,-73.95733,southern,164 Bedford Ave,Brooklyn,11211,"['164 Bedford Ave', 'Brooklyn, NY 11211']"
134,Very Fresh Noodles,1171,4.5,$$,40.74207,-74.00565,taiwanese,409 W 15th St,New York,10011,"['409 W 15th St', 'New York, NY 10011']"
135,Jungsik,688,4.5,$$$$,40.7188032533572,-74.0090829725856,korean,2 Harrison St,New York,10013,"['2 Harrison St', 'New York, NY 10013']"
136,Sweet Chick,1780,4.0,$$,40.7217399,-73.98739,southern,178 Ludlow St,New York,10002,"['178 Ludlow St', 'New York, NY 10002']"
137,Pio Pio 8,2427,4.0,$$,40.760506289326,-73.994564488901,latin,604 10th Ave,New York,10036,"['604 10th Ave', 'New York, NY 10036']"
138,Dough,1598,4.0,$,40.73931,-73.99243,desserts,14 W 19th St,New York,10011,"['14 W 19th St', 'New York, NY 10011']"
139,Il Bambino,1265,4.5,$$,40.76281,-73.92089,italian,34-08 31st Ave,Astoria,11106,"['34-08 31st Ave', 'Astoria, NY 11106']"
140,La Lanterna Di Vittorio,1551,4.0,$$,40.73069,-74.00015,italian,129 MacDougal St,New York,10012,"['129 MacDougal St', 'New York, NY 10012']"
141,Babbo,2493,4.0,$$$$,40.732283,-73.999284,italian,110 Waverly Pl,New York,10011,"['110 Waverly Pl', 'New York, NY 10011']"
142,Sushi by Bou Times Square,651,4.5,$$$,40.75851,-73.98322,sushi,132 W 47th St,New York,10036,"['132 W 47th St', 'New York, NY 10036']"
143,Ayza Wine & Chocolate Bar,1940,4.0,$$,40.7471774721074,-73.987011312828,wine_bars,11 W 31st St,New York,10001,"['11 W 31st St', 'New York, NY 10001']"
144,Los Mariscos,687,4.5,$,40.74207,-74.00565,seafood,409 W 15th St,New York,10011,"['409 W 15th St', 'New York, NY 10011']"
145,Frisson Espresso,784,4.5,$,40.7608108520508,-73.9889984130859,coffee,326 W 47th St,New York,10036,"['326 W 47th St', 'New York, NY 10036']"
146,Kesté Pizza & Vino,1473,4.0,$$,40.7093947,-74.0048977,pizza,66 Gold S,New York,10038,"['66 Gold S', 'New York, NY 10038']"
147,Cookshop,2185,4.0,$$,40.74573188144824,-74.00540454907613,newamerican,156 10th Ave,New York,10011,"['156 10th Ave', 'New York, NY 10011']"
148,DeStefano's Steakhouse,916,4.5,$$$,40.71462413989243,-73.9497399,steak,593 Lorimer St,Brooklyn,11211,"['593 Lorimer St', 'Brooklyn, NY 11211']"
149,Absolute Bagels,1549,4.5,$,40.80251,-73.96745,bakeries,2788 Broadway,New York,10025,"['2788 Broadway', 'New York, NY 10025']"
150,Breads Bakery,1110,4.5,$,40.73661,-73.99181,bakeries,18 E 16th St,New York,10003,"['18 E 16th St', 'New York, NY 10003']"
151,Buvette,1930,4.0,$$,40.732704,-74.00434640955953,french,42 Grove St,New York,10014,"['42 Grove St', 'New York, NY 10014']"
152,Seva Indian Cuisine,1348,4.5,$$,40.76571,-73.91839,indpak,34-11 30th Ave,Astoria,11103,"['34-11 30th Ave', 'Astoria, NY 11103']"
153,Pommes Frites,1027,4.5,$,40.730022,-74.000152,belgian,128 Macdougal St,New York,10012,"['128 Macdougal St', 'New York, NY 10012']"
154,Gelso & Grand,1189,4.5,$$,40.7194089547259,-73.9973777877722,italian,186 Grand St,New York,10013,"['186 Grand St', 'New York, NY 10013']"
155,Bohemian Restaurant,802,4.5,$$$,40.72639,-73.99236,japanese,57 Great Jones St,New York,10012,"['57 Great Jones St', 'New York, NY 10012']"
156,Gyu-Kaku Japanese BBQ,1737,4.0,$$$,40.72822,-73.99142,japanese,34 Cooper Sq,New York,10003,"['34 Cooper Sq', 'New York, NY 10003']"
157,Paulie Gee's,1306,4.5,$$,40.729546,-73.958568,pizza,60 Greenpoint Ave,Brooklyn,11222,"['60 Greenpoint Ave', 'Brooklyn, NY 11222']"
158,Shake Shack,3059,4.0,$$,40.758412133689,-73.9891822636127,burgers,691 8th Ave,New York,10036,"['691 8th Ave', 'New York, NY 10036']"
159,Nyonya,2218,4.0,$$,40.719116974367,-73.9968322948353,malaysian,199 Grand St,New York,10013,"['199 Grand St', 'New York, NY 10013']"
160,Momosan Ramen & Sake - New York,1732,4.0,$$,40.74993,-73.97746,ramen,342 Lexington Ave,New York,10016,"['342 Lexington Ave', 'New York, NY 10016']"
161,Sweet Moment,964,4.5,$$,40.71763,-73.99714,coffee,106 Mott St,New York,10013,"['106 Mott St', 'New York, NY 10013']"
162,Pylos,1163,4.5,$$$,40.72608,-73.98415,greek,128 E 7th St,New York,10009,"['128 E 7th St', 'New York, NY 10009']"
163,Red Bamboo,1762,4.0,$$,40.7311846,-74.00042619999999,vegetarian,140 W 4th St,New York,10012,"['140 W 4th St', 'Ste A', 'New York, NY 10012']"
164,BCD Tofu House,2211,4.0,$$,40.747509,-73.986079,korean,5W 32nd St,New York,10001,"['5W 32nd St', 'New York, NY 10001']"
165,Boucherie Union Square,1095,4.5,$$$,40.73725824850519,-73.9882252705524,steak,225 Park Ave S,New York,10003,"['225 Park Ave S', 'New York, NY 10003']"
166,Yuca Bar,1907,4.0,$$,40.7262,-73.9836,latin,111 Avenue A,New York,10009,"['111 Avenue A', 'New York, NY 10009']"
167,Pisillo Italian Panini,651,4.5,$$,40.710558,-74.007594,italian,97 Nassau St,New York,10038,"['97 Nassau St', 'New York, NY 10038']"
168,Champs Diner,1634,4.0,$$,40.7084397372605,-73.9407808520115,vegan,197 Meserole St,Brooklyn,11206,"['197 Meserole St', 'Brooklyn, NY 11206']"
169,Hatsuhana Sushi Restaurant,1417,4.0,$$$,40.75703,-73.97692,japanese,17 E 48th St,New York,10017,"['17 E 48th St', 'New York, NY 10017']"
170,Little Owl,1359,4.0,$$,40.73240001181511,-74.00532068435112,breakfast_brunch,90 Bedford St,New York,10014,"['90 Bedford St', 'New York, NY 10014']"
171,Bua Thai Ramen & Robata Grill,1371,4.5,$$,40.77635,-73.95308,thai,1611 2nd Ave,New York,10028,"['1611 2nd Ave', 'New York, NY 10028']"
172,SriPraPhai Thai Restaurant,2438,4.0,$$,40.7464987,-73.8992328,thai,64-13 39th Ave,Woodside,11377,"['64-13 39th Ave', 'Woodside, NY 11377']"
173,Joe's Pizza,1452,4.0,$,40.7547,-73.98696,pizza,1435 Broadway,New York,10018,"['1435 Broadway', 'New York, NY 10018']"
174,Tsurutontan Udon Noodle Brasserie,2107,4.0,$$,40.73678,-73.9910699,japanese,21 E 16th St,New York,10003,"['21 E 16th St', 'New York, NY 10003']"
175,ChikaLicious Dessert Bar,1357,4.0,$$,40.72964636531206,-73.98620154365136,desserts,203 E 10th St,New York,10003,"['203 E 10th St', 'New York, NY 10003']"
176,Root & Bone,1669,4.0,$$,40.7228079872831,-73.9833535829059,southern,200 E 3rd St,New York,10009,"['200 E 3rd St', 'New York, NY 10009']"
177,Raclette,1462,4.0,$$,40.7289298,-73.980601,sandwiches,511 E 12th St,New York,10009,"['511 E 12th St', 'New York, NY 10009']"
178,Cafe Katja,810,4.5,$$,40.7177673,-73.990589,german,79 Orchard St,New York,10002,"['79 Orchard St', 'New York, NY 10002']"
179,Claw Daddy's,1824,4.0,$$$,40.722071,-73.98847,cajun,185 Orchard St,New York,10002,"['185 Orchard St', 'New York, NY 10002']"
180,Buttermilk Channel,1950,4.0,$$,40.675919,-73.999059,newamerican,524 Court St,Brooklyn,11231,"['524 Court St', 'Brooklyn, NY 11231']"
181,Pig and Khao,1750,4.0,$$$,40.71926,-73.98475,filipino,68 Clinton St,New York,10002,"['68 Clinton St', 'New York, NY 10002']"
182,Raku,630,4.5,$$,40.72728,-74.00252,japanese,48 Macdougal St,New York,10012,"['48 Macdougal St', 'New York, NY 10012']"
183,Mighty Quinn's Barbeque,1811,4.0,$$,40.727574,-73.988623,bbq,103 2nd Ave,New York,10003,"['103 2nd Ave', 'New York, NY 10003']"
184,Ootoya Chelsea,1456,4.0,$$,40.73881,-73.99279,sushi,8 W 18th St,New York,10011,"['8 W 18th St', 'New York, NY 10011']"
185,Nai ,1016,4.5,$$$,40.725312718247714,-73.98805321774238,tapasmallplates,84 2nd Ave,New York,10003,"['84 2nd Ave', 'New York, NY 10003']"
186,Amy Ruth's,2792,4.0,$$,40.80248,-73.95038,southern,113 W 116th St,New York,10026,"['113 W 116th St', 'New York, NY 10026']"
187,Jack's Wife Freda,2077,4.0,$$,40.7221323,-73.9975402,breakfast_brunch,226 Lafayette St,New York,10012,"['226 Lafayette St', 'New York, NY 10012']"
188,Alta,1963,4.0,$$$,40.7345163811398,-73.9983369619683,tapas,64 W 10th St,New York,10011,"['64 W 10th St', 'New York, NY 10011']"
189,Crif Dogs,2089,4.0,$,40.72707,-73.98379,hotdog,113 Saint Marks Pl,New York,10009,"['113 Saint Marks Pl', 'New York, NY 10009']"
190,Whiskey Tavern,809,4.5,$$,40.71646,-73.99969,whiskeybars,79 Baxter St,New York,10013,"['79 Baxter St', 'New York, NY 10013']"
191,Faicco's Italian Specialties,602,4.5,$$,40.73113,-74.00306,meats,260 Bleecker St,New York,10014,"['260 Bleecker St', 'New York, NY 10014']"
192,Barn Joo,1741,4.0,$$,40.73684,-73.99069,korean,35 Union Sq W,New York,10003,"['35 Union Sq W', 'New York, NY 10003']"
193,Cote,1290,4.0,$$$$,40.74132139474485,-73.99130256661059,korean,16 W 22nd St,New York,10010,"['16 W 22nd St', 'New York, NY 10010']"
194,Da Andrea,1214,4.5,$$,40.736218,-73.99597,italian,35 W 13th St,New York,10011,"['35 W 13th St', 'New York, NY 10011']"
195,Vida Verde,1325,4.5,$$,40.7649503286729,-73.9828372257363,cocktailbars,248 W 55th St,New York,10019,"['248 W 55th St', 'New York, NY 10019']"
196,Shake Shack,2385,4.0,$$,40.7808207060578,-73.9765516723468,burgers,366 Columbus Ave,New York,10024,"['366 Columbus Ave', 'New York, NY 10024']"
197,Johny's Luncheonette,1075,4.5,$,40.7444458007812,-73.9930725097656,breakfast_brunch,124 W 25th St,New York,10001,"['124 W 25th St', 'New York, NY 10001']"
198,5ive Spice,507,4.5,$$,40.722598,-73.996272,vietnamese,227 Mulberry St,New York,10012,"['227 Mulberry St', 'New York, NY 10012']"
199,Casa Enrique,1350,4.0,$$,40.743404338358,-73.954350367693,mexican,5-48 49th Ave,Long Island City,11101,"['5-48 49th Ave', 'Long Island City, NY 11101']"
200,Laojie Hotpot,685,4.5,$$,40.6389709339157,-74.0046846944427,hotpot,811 53rd St,Brooklyn,11220,"['811 53rd St', 'Brooklyn, NY 11220']"
201,Hometown Bar-B-Que,1491,4.0,$$,40.67486,-74.01602,bbq,454 Van Brunt St,Brooklyn,11231,"['454 Van Brunt St', 'Brooklyn, NY 11231']"
202,La Parisienne,677,4.5,$$,40.70961,-74.0093799,cafes,9 Maiden Ln,New York,10038,"['9 Maiden Ln', 'New York, NY 10038']"
203,Liberty Bagels Midtown,866,4.5,$,40.75255,-73.99249,breakfast_brunch,260 W 35th St,New York,10001,"['260 W 35th St', 'New York, NY 10001']"
204,Havana Central,2530,4.0,$$,40.75833809808108,-73.98409870613455,cuban,151 W 46th St,New York,10036,"['151 W 46th St', 'New York, NY 10036']"
205,Levain Bakery,661,4.5,$$,40.781532,-73.979286,bakeries,351 Amsterdam Ave,New York,10024,"['351 Amsterdam Ave', 'New York, NY 10024']"
206,Ba Xuyen,735,4.5,$,40.64528,-73.9997099,vietnamese,4222 8th Ave,Brooklyn,11232,"['4222 8th Ave', 'Brooklyn, NY 11232']"
207,Nish Nush,749,4.5,$$,40.715688,-74.007695,vegetarian,88 Reade St,New York,10013,"['88 Reade St', 'New York, NY 10013']"
208,Butcher Bar,2168,4.0,$$,40.76431,-73.9164,bbq,37-10 30th Ave,Astoria,11103,"['37-10 30th Ave', 'Astoria, NY 11103']"
209,Fette Sau,2280,4.0,$$,40.714066,-73.956327,bbq,354 Metropolitan Ave,Brooklyn,11211,"['354 Metropolitan Ave', 'Brooklyn, NY 11211']"
210,Toloache 50,2091,4.0,$$$,40.762227,-73.9856178382696,mexican,251 West 50th St,New York,10012,"['251 West 50th St', 'New York, NY 10012']"
211,Aunt Jake's,1611,4.0,$$,40.7186467,-73.9979241,italian,133 Mulberry St,New York,10013,"['133 Mulberry St', 'New York, NY 10013']"
212,Marc Forgione,971,4.5,$$$,40.71647,-74.0095599,newamerican,134 Reade St,New York,10013,"['134 Reade St', 'New York, NY 10013']"
213,Otis,413,5.0,$$$,40.706011,-73.932598,newamerican,18 Harrison Pl,Brooklyn,11206,"['18 Harrison Pl', 'Brooklyn, NY 11206']"
214,Cask,1403,4.0,$$,40.745414,-73.979004,bars,167 E 33rd St,New York,10016,"['167 E 33rd St', 'New York, NY 10016']"
215,Blue Ribbon Brasserie - SoHo,959,4.5,$$$,40.725456,-74.003027,tradamerican,97 Sullivan St,New York,10012,"['97 Sullivan St', 'New York, NY 10012']"
216,Mia's Bakery,917,4.5,$,40.6870199,-73.9901299,bakeries,139 Smith St,Brooklyn,11201,"['139 Smith St', 'Brooklyn, NY 11201']"
217,Maison Pickle,1370,4.0,$$,40.7870473,-73.9781361,cocktailbars,2315 Broadway,New York,10024,"['2315 Broadway', 'New York, NY 10024']"
218,Gallaghers Steakhouse,1387,4.0,$$$$,40.762876,-73.983837,steak,228 W 52nd St,New York,10019,"['228 W 52nd St', 'New York, NY 10019']"
219,Soco,2256,4.0,$$,40.693866,-73.964535,cajun,509 Myrtle Ave,Brooklyn,11205,"['509 Myrtle Ave', 'Brooklyn, NY 11205']"
220,Turntable Chicken Jazz,2073,4.0,$$,40.74828,-73.98649,chicken_wings,20 W 33rd St,New York,10001,"['20 W 33rd St', 'New York, NY 10001']"
221,Lupa,1646,4.0,$$$,40.7276,-74.000045,italian,170 Thompson St,New York,10012,"['170 Thompson St', 'New York, NY 10012']"
222,Pokeworks,1759,4.0,$$,40.75166024917636,-73.98585830122367,sushi,63 W 37th St,New York,10018,"['63 W 37th St', 'New York, NY 10018']"
223,Calle Dao - Chelsea,885,4.5,$$,40.74769301,-74.00350737,cuban,461 W 23rd St,New York,10011,"['461 W 23rd St', 'New York, NY 10011']"
224,Cuba Restaurant and Rum Bar,1617,4.0,$$,40.729084,-73.998832,cuban,222 Thompson St,New York,10012,"['222 Thompson St', 'New York, NY 10012']"
225,Freemans,2135,4.0,$$,40.721988,-73.992466,breakfast_brunch,Freeman Alley,New York,10002,"['Freeman Alley', 'New York, NY 10002']"
226,Mom's Kitchen & Bar,1172,4.5,$$,40.76247,-73.9901,comfortfood,701 9th Ave,New York,10019,"['701 9th Ave', 'New York, NY 10019']"
227,Supermoon Bakehouse,856,4.0,$$,40.71991,-73.9872,bakeries,120 Rivington St,New York,10002,"['120 Rivington St', 'New York, NY 10002']"
228,Russ & Daughters Cafe,1060,4.0,$$,40.7196253171697,-73.9895758930263,bagels,127 Orchard St,New York,10002,"['127 Orchard St', 'New York, NY 10002']"
229,Tasty Hand-Pulled Noodles,1702,4.0,$$,40.7142,-73.99787,chinese,1 Doyers St,New York,10013,"['1 Doyers St', 'New York, NY 10013']"
230,Milk Bar East Village,3381,3.5,$$,40.7318893900159,-73.9857388595245,bakeries,251 E 13th St,New York,10003,"['251 E 13th St', 'New York, NY 10003']"
231,Little Collins,932,4.5,$$,40.75233,-73.97353,coffee,708 3rd Ave,New York,10017,"['708 3rd Ave', 'New York, NY 10017']"
232,Beyond Sushi,767,4.5,$$,40.76331,-73.97717,vegan,62 W 56th St,New York,10019,"['62 W 56th St', 'New York, NY 10019']"
233,Adrienne's Pizzabar,1744,4.0,$$,40.7043362,-74.0101733,pizza,54 Stone St,New York,10004,"['54 Stone St', 'New York, NY 10004']"
234,Blue Hill,1028,4.5,$$$$,40.73204650000005,-73.99966984110456,newamerican,75 Washington Pl,New York,10011,"['75 Washington Pl', 'New York, NY 10011']"
235,Cocoron  & Goemon Curry,1030,4.0,$$,40.72029996280202,-73.99304888458795,japanese,16 Delancey St,New York,10002,"['16 Delancey St', 'New York, NY 10002']"
236,Kura,509,4.5,$$$$,40.726709,-73.9835794,japanese,130 St Marks Pl,New York,10009,"['130 St Marks Pl', 'New York, NY 10009']"
237,Trattoria L'incontro,1020,4.5,$$$,40.77648209257472,-73.91059675544598,italian,21-76 31st St,Astoria,11105,"['21-76 31st St', 'Astoria, NY 11105']"
238,Benjamin Steakhouse,1292,4.0,$$$$,40.7518024,-73.97936,steak,52 E 41st St,New York City,10017,"['52 E 41st St', 'New York City, NY 10017']"
239,Becco,2936,3.5,$$$,40.76083,-73.98981,italian,355 W 46th St,New York,10036,"['355 W 46th St', 'New York, NY 10036']"
240,Verlaine,1461,4.0,$$,40.720079,-73.987785,tapasmallplates,110 Rivington St,New York,10002,"['110 Rivington St', 'New York, NY 10002']"
241,The River Café,1192,4.0,$$$$,40.70386671305111,-73.99479360219303,newamerican,1 Water St,Brooklyn,11201,"['1 Water St', 'Brooklyn, NY 11201']"
242,Ai Fiori,1358,4.0,$$$$,40.7500752,-73.9837835,italian,400 5th Ave,New York,10018,"['400 5th Ave', 'Ste 2', 'New York, NY 10018']"
243,nonono,972,4.0,$$$,40.74545,-73.98499,tapasmallplates,118 Madison Ave,New York,10016,"['118 Madison Ave', 'New York, NY 10016']"
244,Go! Go! Curry!,1481,4.0,$$,40.7547,-73.991055,japacurry,273 W 38th St,New York,10018,"['273 W 38th St', 'New York, NY 10018']"
245,HanGawi,1265,4.0,$$$,40.746612323020926,-73.98476051936564,vegetarian,12 E 32nd St,New York,10016,"['12 E 32nd St', 'New York, NY 10016']"
246,Mamoun's Falafel - East Village Manhattan,1239,4.0,$$,40.728814,-73.988492,mideastern,30 St Marks Pl,New York,10003,"['30 St Marks Pl', 'New York, NY 10003']"
247,Lure Fishbar,1783,4.0,$$$,40.724612166991,-73.998574708004,seafood,142 Mercer St,New York,10012,"['142 Mercer St', 'New York, NY 10012']"
248,Locanda Verde,1735,4.0,$$$,40.7198601300801,-74.010039072422,italian,377 Greenwich St,New York,10013,"['377 Greenwich St', 'New York, NY 10013']"
249,BoCaphe,1646,4.0,$$,40.722062,-73.997587,vietnamese,222 Lafayette St,New York,10012,"['222 Lafayette St', 'New York, NY 10012']"
250,Levain Bakery,787,4.5,$$,40.8049739,-73.9551513,bakeries,2167 Frederick Douglass Blvd,New York,10026,"['2167 Frederick Douglass Blvd', 'New York, NY 10026']"
251,The Drunken Munkey - UES,1176,4.5,$$,40.78098,-73.94751,indpak,338 E 92nd St,New York,10128,"['338 E 92nd St', 'New York, NY 10128']"
252,La Grande Boucherie,1091,4.5,$$$,40.7626274,-73.98084109999999,french,145 W 53rd St,New York,10019,"['145 W 53rd St', 'New York, NY 10019']"
253,Hold Fast Kitchen & Spirits,504,5.0,$$,40.76064,-73.99023,newamerican,364 W 46th St,New York,10036,"['364 W 46th St', 'New York, NY 10036']"
254,Petee's Pie Company,856,4.5,$,40.7192158508607,-73.9912822511308,bakeries,61 Delancey St,New York,10002,"['61 Delancey St', 'New York, NY 10002']"
255,Miti Miti,1367,4.0,$$,40.6786672454389,-73.9791200818081,latin,138 5th Ave,Brooklyn,11217,"['138 5th Ave', 'Brooklyn, NY 11217']"
256,Van Leeuwen Ice Cream,998,4.0,$$,40.7277,-73.98768,desserts,48 1/2 E 7th St,New York,10003,"['48 1/2 E 7th St', 'New York, NY 10003']"
257,Malatesta Trattoria,1287,4.0,$$,40.73285,-74.00847,italian,649 Washington St,New York,10014,"['649 Washington St', 'New York, NY 10014']"
258,Spicy Moon East Village,511,4.5,$$,40.72674,-73.98722,szechuan,328 E 6th St,New York,10003,"['328 E 6th St', 'New York, NY 10003']"
259,Cafeteria,3464,3.5,$$,40.740567590122,-73.9980747946,newamerican,119 7th Ave,New York,10011,"['119 7th Ave', 'New York, NY 10011']"
260,Bunna Cafe,704,4.5,$$,40.705042,-73.928078,ethiopian,1084 Flushing Ave,Brooklyn,11237,"['1084 Flushing Ave', 'Brooklyn, NY 11237']"
261,Please Don't Tell,1851,4.0,$$$,40.727157,-73.983721,lounges,113 St Marks Pl,New York,10009,"['113 St Marks Pl', 'New York, NY 10009']"
262,Dim Sum Palace,1462,4.0,$$,40.76015,-73.9893699,dimsum,334 W 46th St,New York,10036,"['334 W 46th St', 'New York, NY 10036']"
263,Zest Sushi,891,4.0,$$,40.7178344726563,-73.9899597167969,sushi,249 Broome St,New York,10002,"['249 Broome St', 'New York, NY 10002']"
264,Patzeria Perfect Pizza,1685,4.0,$,40.75949451155184,-73.98673451962638,pizza,231 W 46th St,New York,10036,"['231 W 46th St', 'New York, NY 10036']"
265,Minca,1695,4.0,$$,40.72412,-73.98288,ramen,536 E 5th St,New York,10009,"['536 E 5th St', 'New York, NY 10009']"
266,Ample Hills Creamery,582,4.5,$,40.678907,-73.987319,icecream,305 Nevins St,Brooklyn,11215,"['305 Nevins St', 'Brooklyn, NY 11215']"
267,Il Corallo Trattoria,1066,4.0,$$,40.7262073,-74.0018919,italian,176 Prince St,New York,10012,"['176 Prince St', 'New York, NY 10012']"
268,Abraço,877,4.5,$$,40.727365,-73.986167,coffeeroasteries,81 E 7th St,New York,10003,"['81 E 7th St', 'New York, NY 10003']"
269,Bobwhite Counter,857,4.5,$,40.72365,-73.97899,southern,94 Ave C,New York,10009,"['94 Ave C', 'New York, NY 10009']"
270,The Thirsty Koala,1171,4.5,$$,40.774416,-73.908739,australian,35-12 Ditmars Blvd,Astoria,11105,"['35-12 Ditmars Blvd', 'Astoria, NY 11105']"
271,Martha's Country Bakery,847,4.5,$$,40.7148806028737,-73.9607515186071,bakeries,263 Bedford Ave,Brooklyn,11211,"['263 Bedford Ave', 'Brooklyn, NY 11211']"
272,Union Square Cafe,1274,4.0,$$$,40.737772,-73.987876,newamerican,101 E 19th St,New York,10003,"['101 E 19th St', 'New York, NY 10003']"
273,Luke's Lobster Upper East Side,1205,4.0,$$,40.7747308470083,-73.9545491922026,seafood,242 E 81st St,New York,10028,"['242 E 81st St', 'New York, NY 10028']"
274,Barboncino Pizza & Bar,1047,4.0,$$,40.67206,-73.95717,pizza,781 Franklin Ave,Brooklyn,11238,"['781 Franklin Ave', 'Brooklyn, NY 11238']"
275,Taco Mahal,689,4.5,$$,40.73235768476899,-74.00332645767203,indpak,73 7th Ave S,New York,10014,"['73 7th Ave S', 'New York, NY 10014']"
276,Boqueria Soho,1144,4.0,$$,40.724912,-74.0021299,spanish,171 Spring St,New York,10012,"['171 Spring St', 'New York, NY 10012']"
277,5ive Spice,813,4.5,$$,40.681442,-73.977241,vietnamese,52 5th Ave,Brooklyn,11217,"['52 5th Ave', 'Brooklyn, NY 11217']"
278,Harney & Sons SoHo,755,4.5,$$,40.7214398332376,-73.9994008558221,coffee,433 Broome St,New York,10013,"['433 Broome St', 'Ground Fl', 'New York, NY 10013']"
279,Song E Napule,598,4.5,$$,40.72813,-74.00188,pizza,146 W Houston St,New York,10012,"['146 W Houston St', 'New York, NY 10012']"
280,Top Thai Vintage,610,4.5,$$,40.729907419973344,-74.00421380395268,thai,55 Carmine St,New York,10014,"['55 Carmine St', 'New York, NY 10014']"
281,Chela Modern Mexican,579,4.5,$$,40.67032,-73.98569,mexican,408 5th Ave,Brooklyn,11215,"['408 5th Ave', 'Brooklyn, NY 11215']"
282,Parker & Quinn,1452,4.0,$$,40.7525862175813,-73.9850713153442,newamerican,64 W 39th St,New York,10018,"['64 W 39th St', 'New York, NY 10018']"
283,Tompkins Square Bagels - Avenue A,1272,4.0,$$,40.72823,-73.9823,bagels,165 Avenue A,New York,10009,"['165 Avenue A', 'New York, NY 10009']"
284,Carbone,1365,4.0,$$$$,40.728,-74.0001497,italian,181 Thompson St,New York,10012,"['181 Thompson St', 'New York, NY 10012']"
285,Takahachi Bakery,964,4.0,$$,40.71393,-74.00822,bakeries,25 Murray St,New York,10007,"['25 Murray St', 'New York, NY 10007']"
286,Olea,946,4.0,$$,40.6877844,-73.9706046,tapas,171 Lafayette Ave,Brooklyn,11238,"['171 Lafayette Ave', 'Brooklyn, NY 11238']"
287,PMF Pardon My French,1054,4.0,$$,40.72473,-73.98115,french,103 Ave B,New York,10009,"['103 Ave B', 'New York, NY 10009']"
288,Supreme Restaurant,2196,3.5,$$,40.71726,-73.99721,shanghainese,100 Mott St,New York,10013,"['100 Mott St', 'New York, NY 10013']"
289,MUD,1259,4.0,$$,40.72905,-73.98668,coffee,307 E 9th St,New York,10003,"['307 E 9th St', 'New York, NY 10003']"
290,Joey Bats Café,332,5.0,$,40.72006,-73.99037,desserts,129 Allen St,New York,10002,"['129 Allen St', 'New York, NY 10002']"
291,Kopitiam,837,4.0,$$,40.71387,-73.99091,malaysian,151 E Broadway,New York,10002,"['151 E Broadway', 'New York, NY 10002']"
292,Cannelle Patisserie,867,4.5,$$,40.7587709,-73.8917685,bakeries,75-59 31st Ave,East Elmhurst,11370,"['75-59 31st Ave', 'East Elmhurst, NY 11370']"
293,Boqueria Flatiron,1324,4.0,$$$,40.7402927726298,-73.9940709810079,spanish,53 W 19th St,New York,10011,"['53 W 19th St', 'New York, NY 10011']"
294,Chobani,672,4.5,$,40.7256895490098,-74.0010523796082,coffee,152 Prince St,New York,10012,"['152 Prince St', 'New York, NY 10012']"
295,Ayada Thai,1295,4.0,$$,40.7433662414551,-73.8876037597656,thai,7708 Woodside Ave,Elmhurst,11373,"['7708 Woodside Ave', 'Elmhurst, NY 11373']"
296,Maison Premiere,1173,4.0,$$$,40.7142634,-73.96166459999999,seafood,298 Bedford Ave,Brooklyn,11249,"['298 Bedford Ave', 'Brooklyn, NY 11249']"
297,Baba's Pierogies,439,4.5,$$,40.67687,-73.98633,modern_european,295 3rd Ave,Brooklyn,11215,"['295 3rd Ave', 'Brooklyn, NY 11215']"
298,CAFÉ LULUc,1530,4.0,$$,40.68451,-73.99225,french,214 Smith St,Brooklyn,11201,"['214 Smith St', 'Brooklyn, NY 11201']"
299,The Smith,2076,3.5,$$,40.73101549145275,-73.9886217,newamerican,55 3rd Ave,New York,10003,"['55 3rd Ave', 'New York, NY 10003']"
300,Eclair Bakery,667,4.5,$$,40.756689,-73.966617,bakeries,305 E 53rd St,New York,10022,"['305 E 53rd St', 'New York, NY 10022']"
301,Taboonette,920,4.5,$$,40.7346038818359,-73.9928283691406,mediterranean,30 E 13th St,New York,10003,"['30 E 13th St', 'New York, NY 10003']"
302,Beyond Sushi,613,4.5,$$,40.75247,-73.98845,vegan,134 West 37th St,New York,10018,"['134 West 37th St', 'New York, NY 10018']"
303,Don Angie,515,4.5,$$$,40.73778,-74.00197,italian,103 Greenwich Ave,New York,10014,"['103 Greenwich Ave', 'New York, NY 10014']"
304,Tanoshi Sushi Sake Bar,743,4.5,$$$$,40.767568,-73.952815,sushi,1372 York Ave,New York,10021,"['1372 York Ave', 'New York, NY 10021']"
305,Despaña Fine Foods & Tapas Cafe,585,4.5,$$,40.721094,-73.9978255,gourmet,408 Broome St,New York,10013,"['408 Broome St', 'New York, NY 10013']"
306,Culture Espresso,996,4.0,$$,40.7521922375529,-73.985756306206,coffee,72 W 38th St,New York,10018,"['72 W 38th St', 'New York, NY 10018']"
307,Churrascaria Plataforma,1412,4.0,$$$$,40.76202,-73.98765,brazilian,316 W 49th St,New York,10019,"['316 W 49th St', 'New York, NY 10019']"
308,Café China,1737,4.0,$$,40.75157,-73.98584,szechuan,59 W 37th St,New York,10018,"['59 W 37th St', 'New York, NY 10018']"
309,The Grey Dog,1186,4.0,$$,40.740624,-74.000648,coffee,242 W 16th St,New York,10011,"['242 W 16th St', 'New York, NY 10011']"
310,Coppelia,1417,4.0,$$,40.7389111700125,-73.9999985153443,cuban,207 W 14th St,New York,10011,"['207 W 14th St', 'New York, NY 10011']"
311,The Flatiron Room,865,4.5,$$$,40.74452,-73.99049,lounges,37 W 26th St,New York,10010,"['37 W 26th St', 'New York, NY 10010']"
312,Blue Ribbon Sushi,1153,4.0,$$,40.72612,-74.0025299,sushi,119 Sullivan St,New York,10012,"['119 Sullivan St', 'New York, NY 10012']"
313,Employees Only,1511,4.0,$$$,40.73343,-74.00617,newamerican,510 Hudson St,New York,10014,"['510 Hudson St', 'New York, NY 10014']"
314,Sea,3288,3.5,$$,40.71807,-73.960044,thai,114 N 6th St,Brooklyn,11211,"['114 N 6th St', 'Brooklyn, NY 11211']"
315,The Mermaid Inn,1237,4.0,$$,40.7887398925594,-73.9744491607132,seafood,570 Amsterdam Ave,New York,10024,"['570 Amsterdam Ave', 'New York, NY 10024']"
316,JeJu Noodle Bar,743,4.5,$$,40.73304,-74.00734,korean,679 Greenwich St,New York,10014,"['679 Greenwich St', 'New York, NY 10014']"
317,Fogo de Chao Brazilian Steakhouse,1447,4.0,$$$$,40.7610765,-73.9777711,brazilian,40 W 53rd St,New York,10019,"['40 W 53rd St', 'New York, NY 10019']"
318,Amorino Gelato,944,4.0,$$,40.7328781769148,-73.9938826429885,gelato,60 University Pl,New York,10003,"['60 University Pl', 'New York, NY 10003']"
319,Osteria Morini,1218,4.0,$$$,40.7219179851303,-73.9976472073402,italian,218 Lafayette St,New York,10012,"['218 Lafayette St', 'New York, NY 10012']"
320,Five Leaves,1653,4.0,$$,40.72371830945,-73.95159863632,newamerican,18 Bedford Ave,Brooklyn,11222,"['18 Bedford Ave', 'Brooklyn, NY 11222']"
321,The Smith,1177,4.0,$$$,40.74424,-73.98878,newamerican,1150 Broadway,New York,10010,"['1150 Broadway', 'New York, NY 10010']"
322,Pearl Oyster Bar,854,4.0,$$$,40.7314099,-74.00197,seafood,18 Cornelia St,New York,10014,"['18 Cornelia St', 'New York, NY 10014']"
323,Xixa,629,4.5,$$$,40.7104,-73.95854,mexican,241 S 4th St,Brooklyn,11211,"['241 S 4th St', 'Brooklyn, NY 11211']"
324,Luzzos La Pizza Napoletana,1057,4.0,$$,40.730616,-73.9834846,italian,211 1st Ave,New York,10003,"['211 1st Ave', 'New York, NY 10003']"
325,Aux Merveilleux De Fred,411,4.5,$$,40.73835064346807,-74.00412204723874,desserts,37 8th Ave,New York,10014,"['37 8th Ave', 'New York, NY 10014']"
326,Tom's,1386,4.0,$$,40.674491,-73.963439,diners,782 Washington Ave,Brooklyn,11238,"['782 Washington Ave', 'Brooklyn, NY 11238']"
327,Forma Pasta Factory,386,4.5,$$,40.72371,-73.95157,pastashops,14 Bedford Ave,Brooklyn,11222,"['14 Bedford Ave', 'Brooklyn, NY 11222']"
328,Death & Co,1573,4.0,$$$,40.72589,-73.9847,lounges,433 E 6th St,New York,10009,"['433 E 6th St', 'New York, NY 10009']"
329,Stuffed Ice Cream,726,4.5,$,40.72805,-73.98538,icecream,139 1st Ave,New York,10003,"['139 1st Ave', 'New York, NY 10003']"
330,Five Senses,1571,4.0,$$,40.747573158626,-73.9863122632311,korean,9 W 32nd St,New York,10001,"['9 W 32nd St', 'New York, NY 10001']"
331,Don Antonio,1519,4.0,$$,40.762711,-73.986708,pizza,309 W 50th St,New York,10019,"['309 W 50th St', 'New York, NY 10019']"
332,Benemon,645,4.5,$$,40.72551,-73.98838,japanese,108 E 4th St,New York,10003,"['108 E 4th St', 'New York, NY 10003']"
333,Pye Boat Noodle,907,4.5,$$,40.76043,-73.92152,thai,35-13 Broadway,Astoria,11106,"['35-13 Broadway', 'Astoria, NY 11106']"
334,Carroll Place,1183,4.0,$$,40.7287,-73.99971,italian,157 Bleecker St,New York,10012,"['157 Bleecker St', 'New York, NY 10012']"
335,Mei Lai Wah Bakery,1277,4.0,$,40.7155758,-73.9979585,bakeries,64 Bayard St,New York,10013,"['64 Bayard St', 'New York, NY 10013']"
336,Uluh,660,4.5,$$$,40.7293403,-73.9866071,tea,152 2nd Ave,New York,10003,"['152 2nd Ave', 'Ste A', 'New York, NY 10003']"
337,Noodle Village,1257,4.0,$$,40.714167,-73.998803,chinese,13 Mott St,New York,10013,"['13 Mott St', 'New York, NY 10013']"
338,Radegast Hall and Biergarten,1370,4.0,$$,40.716641,-73.961498,pubs,113 N 3rd St,Brooklyn,11249,"['113 N 3rd St', 'Brooklyn, NY 11249']"
339,Arepas Cafe,956,4.0,$$,40.755835,-73.927691,venezuelan,3307 36th Ave,Astoria,11106,"['3307 36th Ave', 'Astoria, NY 11106']"
340,My Pie Pizzeria Romana,819,4.5,$,40.7608512,-73.9694809,pizza,690 Lexington Ave,New York,10022,"['690 Lexington Ave', 'New York, NY 10022']"
341,Rincon Criollo,870,4.5,$$,40.7489644,-73.8690814,cuban,40-09 Junction Blvd,Corona,11368,"['40-09 Junction Blvd', 'Corona, NY 11368']"
342,Hometown Hotpot & BBQ,1371,4.0,$$$,40.71931,-73.99689,hotpot,194 Grand St,New York,10013,"['194 Grand St', 'New York, NY 10013']"
343,Rudy's Bar & Grill,1126,4.0,$,40.76004,-73.99182,divebars,627 9th Ave,New York,10036,"['627 9th Ave', 'New York, NY 10036']"
344,The Wild Son Lunch Counter,552,4.5,$$,40.72737,-73.98525,newamerican,130 First Ave,New York,10009,"['130 First Ave', 'New York, NY 10009']"
345,Craft,1040,4.0,$$$$,40.73818,-73.98866,newamerican,43 E 19th St,New York,10003,"['43 E 19th St', 'New York, NY 10003']"
346,The Original Buddha Bodai Kosher Vegetarian Restaurant,1140,4.0,$$,40.7138543,-73.9989484,chinese,5 Mott St,New York,10013,"['5 Mott St', 'New York, NY 10013']"
347,Flex Mussels,947,4.0,$$$,40.737437,-73.999661,seafood,154 W 13th St,New York,10011,"['154 W 13th St', 'New York, NY 10011']"
348,Soothr,451,4.5,$$,40.732259,-73.987363,thai,204 E 13th St,New York,10003,"['204 E 13th St', 'New York, NY 10003']"
349,Mamasita Bar & Grill,1393,4.0,$$$,40.76733,-73.98945,mexican,818 10th Ave,New York,10019,"['818 10th Ave', 'New York, NY 10019']"
350,Fishmarket Restaurant,587,4.5,$$,40.70717,-74.00192,seafood,111 South St,New York,10038,"['111 South St', 'New York, NY 10038']"
351,Morgenstern's Finest Ice Cream,1498,4.0,$$,40.7216835,-73.9932098,icecream,2 Rivington St,New York,10002,"['2 Rivington St', 'New York, NY 10002']"
352,Au Za'atar,1258,4.0,$$,40.728901,-73.981185,wine_bars,188 Avenue A,New York,10009,"['188 Avenue A', 'New York, NY 10009']"
353,Favela Cubana,1178,4.0,$$$,40.7284702112794,-73.9979839324952,cuban,543 LaGuardia Pl,New York,10012,"['543 LaGuardia Pl', 'New York, NY 10012']"
354,BondST,1049,4.0,$$$$,40.726934,-73.994404,japanese,6 Bond St,New York,10012,"['6 Bond St', 'New York, NY 10012']"
355,SakaMai,736,4.0,$$$,40.7209536656701,-73.9881407239426,japanese,157 Ludlow St,New York,10002,"['157 Ludlow St', 'New York, NY 10002']"
356,4 Charles Prime Rib,322,4.5,$$$$,40.73513,-74.00065,steak,4 Charles St,New York,10014,"['4 Charles St', 'New York, NY 10014']"
357,Red Hook Lobster Pound,1202,4.0,$$,40.6797687107191,-74.0103686973453,seafood,284 Van Brunt St,Brooklyn,11231,"['284 Van Brunt St', 'Brooklyn, NY 11231']"
358,Paesano of Mulberry Street,1153,4.0,$$,40.718554,-73.997447,italian,136 Mulberry St,New York,10013,"['136 Mulberry St', 'New York, NY 10013']"
359,Yakitori Totto,1372,4.0,$$$,40.765375,-73.983114,japanese,251 W 55th St,New York,10019,"['251 W 55th St', 'Fl 2', 'New York, NY 10019']"
360,VEZZO NYCThinCrust Pizza,1330,4.0,$$,40.744435447210506,-73.9814189,pizza,178 Lexington Ave,New York,10016,"['178 Lexington Ave', 'New York, NY 10016']"
361,Ray's Candy Store,436,4.5,$,40.7262776243945,-73.9835707495258,desserts,113 Avenue A,New York,10009,"['113 Avenue A', 'New York, NY 10009']"
362,Da Gennaro,1131,4.0,$$$,40.71832,-73.99794,italian,129 Mulberry St,New York,10013,"['129 Mulberry St', 'New York, NY 10013']"
363,Dekalb Market Hall,698,4.0,$$,40.691025,-73.983311,food_court,445 Albee Square W,Brooklyn,11201,"['445 Albee Square W', 'Basement Level', 'Brooklyn, NY 11201']"
364,Le Parisien,1012,4.0,$$,40.7454079308793,-73.9791478306885,french,163 East 33rd St,New York,10016,"['163 East 33rd St', 'New York, NY 10016']"
365,Housing Works Bookstore,585,4.5,$,40.72454,-73.9965931,bookstores,126 Crosby St,New York,10012,"['126 Crosby St', 'New York, NY 10012']"
366,Dun-Well Doughnuts,890,4.0,$$,40.707743,-73.940202,donuts,222 Montrose Ave,Brooklyn,11206,"['222 Montrose Ave', 'Brooklyn, NY 11206']"
367,Yemen Cafe & Restaurant,566,4.5,$$,40.68989,-73.99366,mideastern,176 Atlantic Ave,Brooklyn,11201,"['176 Atlantic Ave', 'Brooklyn, NY 11201']"
368,ICHIRAN Midtown,1036,4.0,$$,40.74839,-73.99062,ramen,132 W 31st St,New York,10001,"['132 W 31st St', 'New York, NY 10001']"
369,Wayla,476,4.5,$$,40.7183,-73.9926038,thai,100 Forsyth St,New York,10002,"['100 Forsyth St', 'Basement', 'New York, NY 10002']"
370,Oiji,591,4.5,$$$,40.72727,-73.98585,korean,119 1st Ave,New York,10003,"['119 1st Ave', 'New York, NY 10003']"
371,Citizens Of Chelsea,876,4.0,$$,40.748099827409895,-74.000569,coffee,401 W 25th St,New York,10001,"['401 W 25th St', 'New York, NY 10001']"
372,Sala Thai Restaurant,568,4.5,$$,40.7801199,-73.98032,thai,307 Amsterdam Ave,New York,10023,"['307 Amsterdam Ave', 'New York, NY 10023']"
373,Nom Wah Tea Parlor,2185,3.5,$$,40.714490521829,-73.998153857324,dimsum,13 Doyers St,New York,10013,"['13 Doyers St', 'New York, NY 10013']"
374,The Three Monkeys,1242,4.0,$$,40.764164,-73.98306,sportsbars,236 W 54th St,New York,10019,"['236 W 54th St', 'New York, NY 10019']"
375,Xe May Sandwich Shop,646,4.5,$$,40.7272,-73.98493,sandwiches,96 Saint Marks Pl,New York,10009,"['96 Saint Marks Pl', 'New York, NY 10009']"
376,Flip Sigi,877,4.0,$$,40.7344965,-74.0020674,filipino,131 7th Ave S,New York,10014,"['131 7th Ave S', 'New York, NY 10014']"
377,5 Napkin Burger,2177,4.0,$$,40.76018,-73.991093,burgers,630 9th Ave,New York,10036,"['630 9th Ave', 'New York, NY 10036']"
378,Westville East,1087,4.0,$$,40.72847,-73.98213,tradamerican,173 Ave A,New York,10009,"['173 Ave A', 'New York, NY 10009']"
379,NY Dosas,493,4.5,$,40.7308386079893,-73.99863779767,indpak,50 Washington Sq S,New York,10014,"['50 Washington Sq S', 'New York, NY 10014']"
380,Victor's Cafe,1547,4.0,$$$,40.7629499,-73.98403,cuban,236 W 52nd St,New York,10019,"['236 W 52nd St', 'New York, NY 10019']"
381,Westville Chelsea,1177,4.0,$$,40.74175,-74.00007,newamerican,246 W 18th St,New York,10011,"['246 W 18th St', 'New York, NY 10011']"
382,Cho Dang Gol Korean Restaurant,1249,4.0,$$,40.7502365112305,-73.986198425293,korean,55 W 35th St,New York,10001,"['55 W 35th St', 'New York, NY 10001']"
383,Lilly's Craft and Kitchen,1214,4.0,$$,40.76138,-73.99071,bars,675 9th Ave,New York,10036,"['675 9th Ave', 'New York, NY 10036']"
384,Shuka,692,4.5,$$$,40.72707,-74.00283,mediterranean,38 MacDougal St,New York,10012,"['38 MacDougal St', 'New York, NY 10012']"
385,ViV,1075,4.0,$$,40.76277,-73.98969,thai,717 9th Ave,New York,10019,"['717 9th Ave', 'New York, NY 10019']"
386,Tofu Tofu,415,4.5,$$,40.7176299520983,-73.9954301342368,korean,96 Bowery,New York,10013,"['96 Bowery', 'New York, NY 10013']"
387,Manhatta,486,4.5,$$$$,40.70800627689857,-74.00888226517013,newamerican,28 Liberty St,New York,10005,"['28 Liberty St', 'Fl 60', 'New York, NY 10005']"
388,Mughlai Grill,436,4.5,$$,40.7210905,-73.9840446,indpak,6 Clinton St,New York,10002,"['6 Clinton St', 'New York, NY 10002']"
389,Akino,982,4.5,$$$,40.741236,-73.881306,sushi,82-80 Broadway,Elmhurst,11373,"['82-80 Broadway', 'Elmhurst, NY 11373']"
390,Whistle & Fizz,225,5.0,$,40.7307100207,-73.994362572,coffee,254 Greene St,New York,10003,"['254 Greene St', 'New York, NY 10003']"
391,John's of Times Square,2221,3.5,$$,40.75823,-73.98836,pizza,260 W 44th St,New York,10036,"['260 W 44th St', 'New York, NY 10036']"
392,Kang Ho Dong Baekjeong,1401,4.0,$$$,40.747173576622,-73.9852144232788,korean,1 E 32nd St,New York,10016,"['1 E 32nd St', 'New York, NY 10016']"
393,Royal Grill Halal Food,435,4.5,$,40.75621073292354,-73.98334948251191,halal,44TH St And 6th Ave,New York,10018,"['44TH St And 6th Ave', 'New York, NY 10018']"
394,Butter Lane,1240,4.0,$,40.7264944895101,-73.9841490983963,bakeries,123 E 7th St,New York,10009,"['123 E 7th St', 'New York, NY 10009']"
395,Soba-ya,1496,4.0,$$,40.72965,-73.9878899,japanese,229 E 9th St,New York,10003,"['229 E 9th St', 'New York, NY 10003']"
396,Supper,1401,4.0,$$,40.72290786539601,-73.98520720537888,italian,156 E 2nd St,New York,10009,"['156 E 2nd St', 'New York, NY 10009']"
397,The Boil,864,4.0,$$$,40.730316162745154,-73.99429517055144,cajun,17 Waverly Pl,New York,10003,"['17 Waverly Pl', 'New York, NY 10003']"
398,Ocean Prime,689,4.5,$$$$,40.7617438,-73.9805565,seafood,123 W 52nd St,New York,10019,"['123 W 52nd St', 'New York, NY 10019']"
399,Sugar Freak,1854,4.0,$$,40.7646298318085,-73.9159499108791,cajun,37-11 30th Ave,Astoria,11103,"['37-11 30th Ave', 'Astoria, NY 11103']"
400,La Maison du Macaron,893,4.0,$$,40.74318,-73.99419,macarons,132 W 23rd St,New York,10011,"['132 W 23rd St', 'New York, NY 10011']"
401,Maiella,1033,4.0,$$$,40.7471944,-73.9566667,italian,4610 Center Blvd,Long Island City,11109,"['4610 Center Blvd', 'Long Island City, NY 11109']"
402,Scottadito Osteria Toscana,987,4.0,$$,40.6746627,-73.9766125,italian,788A Union St,Brooklyn,11215,"['788A Union St', 'Brooklyn, NY 11215']"
403,Joe's Pizza,976,4.0,$,40.73331,-73.98763,pizza,150 E 14th St,New York,10003,"['150 E 14th St', 'New York, NY 10003']"
404,Upland,1112,4.0,$$$,40.7418912,-73.9846396,newamerican,345 Park Ave S,New York,10010,"['345 Park Ave S', 'New York, NY 10010']"
405,Hillstone Restaurant,1012,4.0,$$$,40.7427534,-73.9847308,newamerican,378 Park Ave S,New York,10010,"['378 Park Ave S', 'New York, NY 10010']"
406,Jora Restaurant & Bar,795,4.5,$$,40.7438054,-73.9515007,peruvian,47-46 11th St,Long Island City,11101,"['47-46 11th St', 'Long Island City, NY 11101']"
407,Junior's Restaurant,1828,3.5,$$,40.690151,-73.981874,bakeries,386 Flatbush Ave Ext,Brooklyn,11201,"['386 Flatbush Ave Ext', 'Brooklyn, NY 11201']"
408,Burger & Lobster - Bryant Park,1107,4.0,$$,40.75596,-73.98532,seafood,132 W 43rd St,New York,10036,"['132 W 43rd St', 'New York, NY 10036']"
409,Karczma,622,4.5,$$,40.729977,-73.955128,polish,136 Greenpoint Ave,Brooklyn,11222,"['136 Greenpoint Ave', 'Brooklyn, NY 11222']"
410,Taverna Kyclades - East Village,894,4.0,$$$,40.73101996968517,-73.98260448877211,greek,228 1st Ave,New York,10009,"['228 1st Ave', 'New York, NY 10009']"
411,Omar's Mediterranean East Midtown,638,4.5,$$,40.75905,-73.969273,mideastern,154 E 55th St,New York,10022,"['154 E 55th St', 'New York, NY 10022']"
412,The Smith,1883,4.0,$$,40.7716201269986,-73.9818377981476,newamerican,1900 Broadway,New York,10023,"['1900 Broadway', 'New York, NY 10023']"
413,Trademark Bar + Kitchen,669,4.5,$$,40.7503233942813,-73.9855566306885,venues,38 W 36th St,New York,10018,"['38 W 36th St', 'New York, NY 10018']"
414,Tuome,594,4.5,$$$,40.72412482724,-73.9828906263924,newamerican,536 E 5th St,New York,10009,"['536 E 5th St', 'New York, NY 10009']"
415,Remi Flower & Coffee,463,4.5,$$,40.753781,-73.9689989,coffee,906 2nd Ave,New York,10017,"['906 2nd Ave', 'New York, NY 10017']"
416,Ki Sushi,738,4.0,$$,40.68764,-73.9901,sushi,122 Smith St,Brooklyn,11201,"['122 Smith St', 'Brooklyn, NY 11201']"
417,Katsu-Hama,1449,4.0,$$,40.75638,-73.97759,japanese,11 E 47th St,New York,10017,"['11 E 47th St', 'New York, NY 10017']"
418,Take31,719,4.0,$$,40.7463,-73.984809,korean,15 E 31st St,New York,10016,"['15 E 31st St', 'New York, NY 10016']"
419,Xi'an Famous Foods,1111,4.0,$$,40.715082,-73.997342,chinese,45 Bayard St,New York,10013,"['45 Bayard St', 'New York, NY 10013']"
420,Gyu-Kaku Japanese BBQ,1292,4.0,$$,40.75908,-73.98989,japanese,321 W 44th St,New York,10036,"['321 W 44th St', 'Unit 103', 'New York, NY 10036']"
421,Penelope,2262,3.5,$$,40.74371,-73.98152,tradamerican,159 Lexington Ave,New York,10016,"['159 Lexington Ave', 'New York, NY 10016']"
422,The Donut Pub,1038,4.0,$$,40.738867,-73.999811,bakeries,203 W 14th St,New York,10011,"['203 W 14th St', 'New York, NY 10011']"
423,SUGARFISH by sushi nozawa,923,4.0,$$$$,40.73901,-73.98882,sushi,33 E 20th St,New York,10003,"['33 E 20th St', 'New York, NY 10003']"
424,Han Dynasty,1301,4.0,$$,40.732072,-73.988074,szechuan,90 3rd Ave,New York,10003,"['90 3rd Ave', 'New York, NY 10003']"
425,Casellula,921,4.0,$$,40.76499,-73.98835,wine_bars,401 W 52nd St,New York,10019,"['401 W 52nd St', 'New York, NY 10019']"
426,Little Branch,1051,4.0,$$$,40.73013,-74.005046,lounges,22 7th Ave S,New York,10014,"['22 7th Ave S', 'New York, NY 10014']"
427,Kame,581,4.5,$$,40.7474881059799,-73.996648862958,ramen,330 8th Ave,New York,10001,"['330 8th Ave', 'New York, NY 10001']"
428,The Rag Trader & Bo Peep Cocktail and Highball Store,610,4.5,$$,40.75059,-73.98628,bars,70 W 36th St,New York,10018,"['70 W 36th St', 'New York, NY 10018']"
429,Print,898,4.0,$$$,40.76452,-73.99586,newamerican,653 11th Ave,New York,10036,"['653 11th Ave', 'New York, NY 10036']"
430,Keki Modern Cakes,694,4.0,$$,40.71656,-73.99822,bakeries,79 Mott St,New York,10013,"['79 Mott St', 'New York, NY 10013']"
431,S'MAC,2275,3.5,$$,40.730212,-73.983724,tradamerican,197 1st Ave,New York,10003,"['197 1st Ave', 'New York, NY 10003']"
432,Hillstone Restaurant,1163,4.0,$$$,40.758352,-73.969112,jazzandblues,888 3rd Ave,New York,10022,"['888 3rd Ave', 'New York, NY 10022']"
433,Ñaño Ecuadorian Kitchen,591,4.5,$$,40.7631,-73.99335,latin,691 10th Ave,New York,10036,"['691 10th Ave', 'New York, NY 10036']"
434,Saigon Vietnamese Sandwich Deli,664,4.5,$,40.7199582,-73.9958631,sandwiches,369 Broome St,New York,10013,"['369 Broome St', 'New York, NY 10013']"
435,Madame Vo,943,4.0,$$,40.72925,-73.98612,vietnamese,212 E 10th St,New York,10003,"['212 E 10th St', 'New York, NY 10003']"
436,La Colombe Coffee,684,4.5,$$,40.72396,-73.99643,coffee,270 Lafayette St,New York,10012,"['270 Lafayette St', 'New York, NY 10012']"
437,Somtum Der,802,4.0,$$,40.7252151982238,-73.9842741682317,thai,85 Ave A,New York,10009,"['85 Ave A', 'New York, NY 10009']"
438,TAO Uptown,2713,3.5,$$$,40.76266943713004,-73.97144107883544,asianfusion,42 E 58th St,New York,10022,"['42 E 58th St', 'New York, NY 10022']"
439,Sottocasa Pizzeria,665,4.5,$$,40.688285,-73.989006,pizza,298 Atlantic Ave,Brooklyn,11201,"['298 Atlantic Ave', 'Brooklyn, NY 11201']"
440,House of Small Wonder,723,4.0,$$,40.718991,-73.960833,sandwiches,77 N 6th St,Brooklyn,11249,"['77 N 6th St', 'Brooklyn, NY 11249']"
441,Indian Accent,642,4.5,$$$$,40.7643344624229,-73.9787312885132,indpak,123 W 56th St,New York,10019,"['123 W 56th St', 'New York, NY 10019']"
442,Red Poke,596,4.5,$$,40.7588993,-73.991915,poke,600 9th Ave,New York,10036,"['600 9th Ave', 'New York, NY 10036']"
443,La Esquina - SoHo,2093,3.5,$$,40.721372,-73.997529,latin,114 Kenmare St,New York,10012,"['114 Kenmare St', 'New York, NY 10012']"
444,Ise Restaurant,561,4.5,$$,40.7291024,-73.9900618,japanese,63 Cooper Sq,New York,10003,"['63 Cooper Sq', 'New York, NY 10003']"
445,Nobu Fifty Seven,1321,4.0,$$$$,40.7636210840864,-73.9765048613641,sushi,40 W 57th St,New York,10019,"['40 W 57th St', 'New York, NY 10019']"
446,Piccola Cucina Osteria,628,4.5,$$,40.72506,-74.00322,italian,196 Spring St,New York City,10012,"['196 Spring St', 'New York City, NY 10012']"
447,The Islands,744,4.5,$$,40.6770523794749,-73.9634169638157,caribbean,671 Washington Ave,Brooklyn,11238,"['671 Washington Ave', 'Brooklyn, NY 11238']"
448,Porto Rico Importing Company,475,4.5,$,40.729492,-74.001621,coffee,201 Bleecker St,New York,10012,"['201 Bleecker St', 'New York, NY 10012']"
449,Chef's Table at Brooklyn Fare,577,4.5,$$$$,40.7561930774282,-73.9966090932068,japanese,431 W 37th St,New York,10018,"['431 W 37th St', 'New York, NY 10018']"
450,Lady M Cake Boutique,1094,4.0,$$$,40.775501,-73.962231,bakeries,41 East 78th St,New York,10075,"['41 East 78th St', 'New York, NY 10075']"
451,Amorino Gelato,785,4.0,$$,40.7595642,-73.9884984,gelato,721 8th Ave,New York,10036,"['721 8th Ave', 'New York, NY 10036']"
452,2nd Ave Deli,1292,4.0,$$,40.745206,-73.9791699,kosher,162 E 33rd St,New York,10016,"['162 E 33rd St', 'New York, NY 10016']"
453,Magnolia Bakery Rockefeller Center,2650,3.5,$$,40.7592651914885,-73.980564548757,desserts,1240 Ave of the Americas,New York,10020,"['1240 Ave of the Americas', 'New York, NY 10020']"
454,Basta Pasta,1488,4.0,$$,40.73881,-73.99407,italian,37 W 17th St,New York,10011,"['37 W 17th St', 'New York, NY 10011']"
455,The Doughnut Project,542,4.5,$,40.731151,-74.003547,donuts,10 Morton St,New York,10014,"['10 Morton St', 'New York, NY 10014']"
456,PizzArte,1170,4.0,$$,40.7629335072372,-73.9776668697596,pizza,69 W 55th St,New York,10019,"['69 W 55th St', 'New York, NY 10019']"
457,Divya's Kitchen,435,4.5,$$,40.72378,-73.98849,vegan,25 1st Ave,New York,10003,"['25 1st Ave', 'New York, NY 10003']"
458,Ricardo Steak House,1269,4.0,$$$,40.793509,-73.94066,steak,2145 2nd Ave,New York,10029,"['2145 2nd Ave', 'New York, NY 10029']"
459,Miriam,1106,4.0,$$,40.6801719843659,-73.9777555239717,wine_bars,79 5th Ave,Slope,11217,"['79 5th Ave', 'Slope, NY 11217']"
460,Wondee Siam,1087,4.0,$$,40.76495,-73.98747,thai,792 9th Ave,New York,10019,"['792 9th Ave', 'New York, NY 10019']"
461,Judge Roy Bean Public House,787,4.5,$$,40.7629158108786,-73.9761248066812,pubs,38 W 56th St,New York,10019,"['38 W 56th St', 'New York, NY 10019']"
462,Atoboy,487,4.5,$$$$,40.74364,-73.98456,korean,43 E 28th St,New York,10016,"['43 E 28th St', 'New York, NY 10016']"
463,Murray's Cheese Bar,828,4.0,$$,40.7483999,-73.9380657,wine_bars,28-30 Jackson Ave,Long Island City,11101,"['28-30 Jackson Ave', 'Long Island City, NY 11101']"
464,Ootoya Times Square,1007,4.0,$$,40.75487,-73.98599,sushi,141 W 41st St,New York,10036,"['141 W 41st St', 'New York, NY 10036']"
465,Manousheh,485,4.5,$,40.729511,-74.001275,lebanese,193 Bleecker St,New York,10012,"['193 Bleecker St', 'New York, NY 10012']"
466,Market Table,833,4.0,$$$,40.7297659255873,-74.0037665277862,newamerican,54 Carmine St,New York,10014,"['54 Carmine St', 'New York, NY 10014']"
467,Hole In The Wall,662,4.5,$$,40.70838968823975,-74.00578177901109,breakfast_brunch,15 Cliff St,New York,10038,"['15 Cliff St', 'New York, NY 10038']"
468,La Pulperia Hell's Kitchen,825,4.0,$$$,40.7599217,-73.991841,latin,623 9th Ave,New York,10036,"['623 9th Ave', 'New York, NY 10036']"
469,Wok Wok Southeast Asian Kitchen,1094,4.0,$$,40.7140555,-73.9988387116394,chinese,11 Mott St,New York,10013,"['11 Mott St', 'New York, NY 10013']"
470,Bozu,857,4.0,$$,40.7129,-73.95749,japanese,296 Grand St,Brooklyn,11211,"['296 Grand St', 'Brooklyn, NY 11211']"
471,Quality Italian,1215,4.0,$$$,40.7644044527436,-73.9767805051616,italian,57 W 57th St,New York,10019,"['57 W 57th St', 'New York, NY 10019']"
472,Sunny and Annie's,530,4.5,$,40.724653,-73.981702,sandwiches,94 Ave B,New York,10003,"['94 Ave B', 'New York, NY 10003']"
473,Capizzi,826,4.0,$$,40.75744,-73.99357,pizza,547 9th Ave,New York,10018,"['547 9th Ave', 'New York, NY 10018']"
474,Apotheke,1476,3.5,$$$,40.71440617040858,-73.99817232132496,lounges,9 Doyers St,New York,10013,"['9 Doyers St', 'New York, NY 10013']"
475,The Bao,1334,4.0,$$,40.72939,-73.9889199,shanghainese,13 St Marks Pl,New York,10003,"['13 St Marks Pl', 'New York, NY 10003']"
476,Gyu-Kaku Japanese BBQ,1239,4.0,$$$,40.75537,-73.97054,japanese,805 3rd Ave,New York,10022,"['805 3rd Ave', '2nd Flr', 'New York, NY 10022']"
477,Burger Joint,2318,3.5,$$,40.76416469936093,-73.9785744544552,tradamerican,119 W 56th St,New York,10019,"['119 W 56th St', 'New York, NY 10019']"
478,Giano Restaurant,650,4.5,$$,40.7262256596862,-73.9840574049125,italian,126 E 7th St,New York,10009,"['126 E 7th St', 'New York, NY 10009']"
479,EN Japanese Brasserie,1304,4.0,$$$,40.7306,-74.00698,japanese,435 Hudson St,New York,10014,"['435 Hudson St', 'New York, NY 10014']"
480,Emporio,828,4.0,$$,40.722647,-73.995246,italian,231 Mott St,New York,10012,"['231 Mott St', 'New York, NY 10012']"
481,Scott's Pizza Tours,338,5.0,$$,40.750244140625,-73.9970245361328,pizza,,New York,10001,"['New York, NY 10001']"
482,Dear Irving,693,4.5,$$$,40.7360568971331,-73.9872401005554,venues,55 Irving Pl,New York,10003,"['55 Irving Pl', 'New York, NY 10003']"
483,Au Cheval,579,4.5,$$$,40.7183878,-74.0015522,burgers,33 Cortlandt Aly,New York,10013,"['33 Cortlandt Aly', 'New York, NY 10013']"
484,Sushi Lin,296,4.5,$$$,40.677786,-73.972591,sushi,335 Flatbush Ave,Brooklyn,11217,"['335 Flatbush Ave', 'Brooklyn, NY 11217']"
485,K Rico Steakhouse,661,4.5,$$$$,40.764345,-73.98798,bars,772 9th Ave,New York,10019,"['772 9th Ave', 'New York, NY 10019']"
486,Tabaré,695,4.0,$$,40.713046,-73.958968,latin,221 S 1st St,Brooklyn,11211,"['221 S 1st St', 'Brooklyn, NY 11211']"
487,Sam's Fried Ice Cream,370,4.5,$$,40.7158246143014,-73.9914940147472,icecream,37 Orchard St,New York,10002,"['37 Orchard St', 'New York, NY 10002']"
488,Blind Tiger Ale House,911,4.0,$$,40.731926,-74.003223,tradamerican,281 Bleecker St,New York,10014,"['281 Bleecker St', 'New York, NY 10014']"
489,Mikey Likes It Ice Cream,532,4.5,$$,40.729385,-73.981359,icecream,199 Avenue A,New York,10009,"['199 Avenue A', 'New York, NY 10009']"
490,Peng's Noodle Folk,507,4.5,$$,40.77726,-73.94932,chinese,1659 1st Ave,New York,10028,"['1659 1st Ave', 'New York, NY 10028']"
491,MáLà Project,788,4.0,$$,40.72713,-73.98542,szechuan,122 1st Ave,New York,10009,"['122 1st Ave', 'New York, NY 10009']"
492,Forno Rosso,753,4.0,$$,40.694467,-73.98293,italian,327 Gold St,Brooklyn,11201,"['327 Gold St', 'Brooklyn, NY 11201']"
493,Barrio Chino,1148,4.0,$$,40.718022,-73.990026,mexican,253 Broome St,New York,10002,"['253 Broome St', 'New York, NY 10002']"
494,Louie's Pizza,559,4.5,$,40.7459,-73.8834,italian,81-34 Baxter Ave,Elmhurst,11373,"['81-34 Baxter Ave', 'Elmhurst, NY 11373']"
495,Heidi's House By The Side Of The Road,639,4.5,$$,40.772189,-73.955029,wine_bars,308 E 78th St,New York,10075,"['308 E 78th St', 'New York, NY 10075']"
496,Van Leeuwen Ice Cream,520,4.5,$$,40.7344208102318,-74.0012722836729,icecream,152 W 10th St,New York,10014,"['152 W 10th St', 'New York, NY 10014']"
497,Frying Pan,1578,4.0,$$,40.7521174043978,-74.0090024471283,bars,207 12th Avenue,New York,10001,"['207 12th Avenue', 'Big Red Boat in Park', 'New York, NY 10001']"
498,Antoya Korean BBQ,786,4.0,$$$,40.74811,-73.9872,korean,37 W 32nd St,New York,10001,"['37 W 32nd St', 'New York, NY 10001']"
499,Dirt Candy,723,4.0,$$$$,40.7179075,-73.9907183,vegetarian,86 Allen St,New York,10002,"['86 Allen St', 'New York, NY 10002']"
500,Thai Holic,502,4.5,$$,40.693005,-73.971286,thai,372 Myrtle Ave,Brooklyn,11205,"['372 Myrtle Ave', 'Brooklyn, NY 11205']"
501,Dudley's,865,4.0,$$,40.71798,-73.99042,cafes,85 Orchard St,New York,10002,"['85 Orchard St', 'New York, NY 10002']"
502,Sarge's Delicatessen & Diner,1278,4.0,$$,40.7473279523583,-73.9772017867971,delis,548 3rd Ave,New York,10016,"['548 3rd Ave', 'New York, NY 10016']"
503,Jajaja Mexicana,472,4.5,$$,40.72979,-74.00455,mexican,63 Carmine St,New York,10014,"['63 Carmine St', 'New York, NY 10014']"
504,Asuka Sushi,1020,4.0,$$,40.74529,-73.99888,japanese,300 W 23rd St,New York,10011,"['300 W 23rd St', 'New York, NY 10011']"
505,Boka,1567,3.5,$$,40.729519,-73.989104,korean,9 St Marks Pl,New York,10003,"['9 St Marks Pl', 'New York, NY 10003']"
506,Lil Frankie's,1311,4.0,$$,40.723625,-73.988555,pizza,19 1st Ave,New York,10003,"['19 1st Ave', 'New York, NY 10003']"
507,Teado Tea Shop,431,4.5,$,40.7172143,-73.9949616,coffee,145D Hester St,New York,10002,"['145D Hester St', 'New York, NY 10002']"
508,Gabriel Kreuther,546,4.5,$$$$,40.754546,-73.982556,lounges,41 W 42nd St,New York,10036,"['41 W 42nd St', 'New York, NY 10036']"
509,Amy's Bread,1161,4.0,$,40.76121,-73.99024,bakeries,672 9th Ave,New York,10036,"['672 9th Ave', 'New York, NY 10036']"
510,Vietnaam,844,4.0,$$,40.7791481018066,-73.9504165649414,vietnamese,1700 2nd Ave,New York,10128,"['1700 2nd Ave', 'New York, NY 10128']"
511,Brooklyn Bagel & Coffee Company,743,4.5,$,40.76055,-73.92176,bagels,35-05 Broadway,Astoria,11106,"['35-05 Broadway', 'Astoria, NY 11106']"
512,Essex,2106,3.5,$$$,40.7196975497428,-73.9873982202378,bars,124 Rivington St,New York,10002,"['124 Rivington St', 'New York, NY 10002']"
513,Stick With Me,296,4.5,$$$,40.72139,-73.99545,chocolate,202A Mott St,New York,10012,"['202A Mott St', 'Ste A', 'New York, NY 10012']"
514,Sami's Kabab House,462,4.5,$$,40.75842829623015,-73.932968,afghani,35-57 Crescent St,Astoria,11106,"['35-57 Crescent St', 'Astoria, NY 11106']"
515,Jun-Men Ramen Bar,662,4.0,$$,40.748209,-74.00047,ramen,249 9th Ave,New York,10001,"['249 9th Ave', 'New York, NY 10001']"
516,Egg Shop,1184,4.0,$$,40.7204574688656,-73.9952510689421,breakfast_brunch,151 Elizabeth St,New York,10012,"['151 Elizabeth St', 'New York, NY 10012']"
517,Clover Club,806,4.0,$$,40.6846046447754,-73.9921875,lounges,210 Smith St,Brooklyn,11201,"['210 Smith St', 'Brooklyn, NY 11201']"
518,Chuko,1088,4.0,$$,40.680784,-73.967455,asianfusion,565 Vanderbilt Ave,Brooklyn,11238,"['565 Vanderbilt Ave', 'Brooklyn, NY 11238']"
519,Arepa Lady,518,4.5,$$,40.7494896198795,-73.8882688432932,colombian,77-17 37th Ave,Jackson Heights,11372,"['77-17 37th Ave', 'Jackson Heights, NY 11372']"
520,Funny Face Bakery,326,4.5,$$,40.70649,-74.00354,cupcakes,6 Fulton St,New York,10038,"['6 Fulton St', 'New York, NY 10038']"
521,Cull & Pistol Oyster Bar,646,4.0,$$,40.742553,-74.006052,seafood,75 9th Ave,New York,10011,"['75 9th Ave', 'New York, NY 10011']"
522,The Farm On Adderley,1228,4.0,$$,40.63965,-73.96754,newamerican,1108 Cortelyou Rd,Brooklyn,11218,"['1108 Cortelyou Rd', 'Brooklyn, NY 11218']"
523,Yakitori Taisho,1590,3.5,$$,40.729516,-73.98927,japanese,5 St Marks Pl,New York,10003,"['5 St Marks Pl', 'Ste 1', 'New York, NY 10003']"
524,Ramen-Ya,1012,4.0,$$,40.73240291897287,-74.00161605752945,ramen,181 W 4th St,New York,10014,"['181 W 4th St', 'New York, NY 10014']"
525,Flor De Mayo,1246,4.0,$$,40.78609,-73.97658,chinese,484 Amsterdam Ave,New York,10024,"['484 Amsterdam Ave', 'New York, NY 10024']"
526,Tomi Jazz,582,4.5,$$,40.75725,-73.96774,japanese,239 E 53rd St,New York,10022,"['239 E 53rd St', 'New York, NY 10022']"
527,Caracas Arepa Bar,853,4.0,$$,40.713214,-73.957397,venezuelan,291 Grand St,Brooklyn,11211,"['291 Grand St', 'Brooklyn, NY 11211']"
528,Hanoi House,610,4.5,$$,40.727066,-73.983505,vietnamese,119 Saint Marks Pl,New York,10009,"['119 Saint Marks Pl', 'New York, NY 10009']"
529,Kiki's,712,4.0,$$,40.7144971858255,-73.9918553931336,greek,130 Division St,New York,10002,"['130 Division St', 'New York, NY 10002']"
530,Seasoned Vegan,1211,4.0,$$,40.800664,-73.952757,vegan,55 Saint Nicholas Ave,New York,10026,"['55 Saint Nicholas Ave', 'New York, NY 10026']"
531,Mastro's Steakhouse,810,4.0,$$$$,40.761105,-73.980164,steak,1285 6th Ave,New York,10019,"['1285 6th Ave', 'New York, NY 10019']"
532,Nerai,604,4.5,$$$,40.76025680562028,-73.97308771164371,greek,55 E 54th St,New York,10022,"['55 E 54th St', 'New York, NY 10022']"
533,Cafe d Alsace,1287,4.0,$$$,40.77942,-73.95084,french,1703 2nd Ave,New York,10128,"['1703 2nd Ave', 'New York, NY 10128']"
534,Ferrara Bakery & Cafe,1661,3.5,$$,40.719079,-73.997086,bakeries,195 Grand St,New York,10013,"['195 Grand St', 'New York, NY 10013']"
535,Spicy Village,739,4.0,$$,40.71695,-73.99327,chinese,68 Forsyth St,New York,10002,"['68 Forsyth St', 'Ste B', 'New York, NY 10002']"
536,Big Wong,1490,3.5,$,40.71627244103162,-73.99827844267524,chinese,67 Mott St,New York,10013,"['67 Mott St', 'New York, NY 10013']"
537,Bubby's Tribeca,1603,3.5,$$,40.7198118,-74.0083092,tradamerican,120 Hudson St,New York,10013,"['120 Hudson St', 'New York, NY 10013']"
538,Chavela's,1198,4.0,$$,40.673484,-73.957267,mexican,736 Franklin Ave,Brooklyn,11238,"['736 Franklin Ave', 'Brooklyn, NY 11238']"
539,SkyIce Thai Food & Ice Cream,769,4.0,$$,40.6806411743164,-73.9772872924805,icecream,63 5th Ave,Brooklyn,11217,"['63 5th Ave', 'Brooklyn, NY 11217']"
540,Sons of Essex,1286,4.0,$$,40.720315,-73.987774,newamerican,133 Essex St,New York,10002,"['133 Essex St', 'New York, NY 10002']"
541,1803 Nyc,633,4.0,$$,40.715498,-74.007178,cajun,82 Reade St,New York,10007,"['82 Reade St', 'New York, NY 10007']"
542,Non Solo Piada,376,4.5,$$,40.75414,-73.99245,italian,302 W 37th St,New York,10018,"['302 W 37th St', 'New York, NY 10018']"
543,Dinosaur Bar-B-Que,1759,3.5,$$,40.677636704941584,-73.98407231164373,bbq,604 Union St,Brooklyn,11215,"['604 Union St', 'Brooklyn, NY 11215']"
544,Sunday in Brooklyn,1049,4.0,$$,40.71418124017512,-73.96532809508915,newamerican,348 Wythe Ave,Brooklyn,11249,"['348 Wythe Ave', 'Brooklyn, NY 11249']"
545,The Meatball Shop - Williamsburg,1255,4.0,$$,40.7182749,-73.9576213,tradamerican,170 Bedford Ave,Brooklyn,11249,"['170 Bedford Ave', 'Brooklyn, NY 11249']"
546,Let's Meat,1432,4.0,$$$,40.746774,-73.985524,korean,307 5th Ave,New York,10016,"['307 5th Ave', 'New York, NY 10016']"
547,Orchard Grocer,271,4.5,$$,40.717744,-73.990187,delis,78 Orchard St,New York,10002,"['78 Orchard St', 'New York, NY 10002']"
548,Birria-Landia,422,4.5,$,40.747258,-73.887784,foodtrucks,Roosevelt Ave & 78th St,Jackson Heights,11372,"['Roosevelt Ave & 78th St', 'Jackson Heights, NY 11372']"
549,Wo Hop,1536,3.5,$$,40.7142239034582,-73.9988691693115,chinese,17 Mott St,New York,10013,"['17 Mott St', 'New York, NY 10013']"
550,Piacere,685,4.0,$$,40.7196979,-73.9951175,pizza,351 Broome St,New York,10013,"['351 Broome St', 'New York, NY 10013']"
551,Georgetown Cupcake,925,4.0,$$,40.7238244169484,-73.9994524607132,bakeries,111 Mercer St,New York,10012,"['111 Mercer St', 'New York, NY 10012']"
552,The Chocolate Room,619,4.0,$$,40.684764,-73.994445,desserts,269 Court St,Brooklyn,11231,"['269 Court St', 'Brooklyn, NY 11231']"
553,Hill Country Barbecue Market,2218,3.5,$$,40.74428,-73.99041,bbq,30 W 26th St,New York,10010,"['30 W 26th St', 'New York, NY 10010']"
554,Sahadi's,391,4.5,$$,40.690218,-73.993367,intlgrocery,187 Atlantic Ave,Brooklyn,11201,"['187 Atlantic Ave', 'Brooklyn, NY 11201']"
555,Perry St,970,4.0,$$$,40.73442,-74.00971,newamerican,176 Perry St,New York,10014,"['176 Perry St', 'New York, NY 10014']"
556,ICHIRAN - Times Square,568,4.5,$$,40.76004,-73.9833,ramen,152 W 49th St,New York,10019,"['152 W 49th St', 'New York, NY 10019']"
557,Sergimmo Salumeria,693,4.0,$$,40.754296,-73.995498,italian,456 9th Ave,New York,10018,"['456 9th Ave', 'New York, NY 10018']"
558,Rabbithole Restaurant,884,4.0,$$,40.7122932799856,-73.9628687873483,newamerican,352 Bedford Ave,Brooklyn,11211,"['352 Bedford Ave', 'Brooklyn, NY 11211']"
559,Tanoreen,943,4.0,$$,40.6308,-74.02775,mideastern,7523 3rd Ave,Brooklyn,11209,"['7523 3rd Ave', 'Brooklyn, NY 11209']"
560,Tea and Milk,462,4.5,$,40.75904,-73.92631,bubbletea,32-02 34th Ave,Astoria,11106,"['32-02 34th Ave', 'Astoria, NY 11106']"
561,District Saigon,686,4.5,$$,40.7596365,-73.9199343,vietnamese,37-15 Broadway,Astoria,11103,"['37-15 Broadway', 'Astoria, NY 11103']"
562,The Wayland,512,4.5,$$,40.7251,-73.9778,cocktailbars,700 E 9th St,New York,10009,"['700 E 9th St', 'New York, NY 10009']"
563,Hummus Kitchen,1035,4.0,$$,40.7763650431587,-73.9529693360589,mediterranean,1613 2nd Ave,New York,10028,"['1613 2nd Ave', 'New York, NY 10028']"
564,Dons Bogam BBQ & Wine Bar,1045,4.0,$$,40.746826,-73.98448,korean,17 E 32nd St,New York,10016,"['17 E 32nd St', 'New York, NY 10016']"
565,Eight Turn Crêpe,584,4.0,$$,40.6912509,-73.9832589,creperies,445 Albee Square W,Brooklyn,11201,"['445 Albee Square W', 'Brooklyn, NY 11201']"
566,Tavola,1075,4.0,$$,40.755403,-73.994516,italian,488 9th Ave,New York,10018,"['488 9th Ave', 'New York, NY 10018']"
567,BKLYN Blend,376,4.5,$$,40.6923575699329,-73.9457686990499,juicebars,194 Tompkins Ave,Brooklyn,11206,"['194 Tompkins Ave', 'Brooklyn, NY 11206']"
568,Sotto 13,989,4.0,$$,40.7372,-73.99919,italian,140 W 13th St,New York,10011,"['140 W 13th St', 'New York, NY 10011']"
569,Serendipity 3,4381,3.0,$$,40.761851,-73.9649001,newamerican,225 E 60th St,New York,10022,"['225 E 60th St', 'New York, NY 10022']"
570,Chama Mama,481,4.5,$$,40.7384,-73.99892,georgian,149 W 14th St,New York,10011,"['149 W 14th St', 'New York, NY 10011']"
571,Tara Rose,470,4.5,$$,40.74179566099217,-73.9812332883433,cocktailbars,384 3rd Ave,New York,10016,"['384 3rd Ave', 'New York, NY 10016']"
572,Blank Slate Coffee + Kitchen NoMad,691,4.0,$$,40.7453293,-73.9845257,coffee,121 Madison Ave,New York,10016,"['121 Madison Ave', 'New York, NY 10016']"
573,Aquavit,808,4.0,$$$$,40.76079,-73.97221,scandinavian,65 E 55th St,New York,10022,"['65 E 55th St', 'New York, NY 10022']"
574,Chip City,688,4.5,$$,40.7655337630129,-73.9192518515278,coffee,30-06 34th St,Astoria,11103,"['30-06 34th St', 'Astoria, NY 11103']"
575,The Blue Dog Cookhouse & Bar,1362,4.0,$$,40.76244,-73.98674,breakfast_brunch,308 W 50th St,New York,10019,"['308 W 50th St', 'New York, NY 10019']"
576,Parisi Bakery,434,4.5,$$,40.7211836,-73.9954365,bakeries,198 Mott St,New York,10012,"['198 Mott St', 'New York, NY 10012']"
577,Aqua Boil,478,4.5,$$,40.763702,-73.988386,seafood,750 9th Ave,New York,10019,"['750 9th Ave', 'New York, NY 10019']"
578,Daily Provisions,492,4.5,$$,40.73768,-73.9876685,cafes,103 E 19th St,New York,10003,"['103 E 19th St', 'New York, NY 10003']"
579,Norma,515,4.5,$$,40.743553,-73.980026,italian,438 3rd Ave,New York,10016,"['438 3rd Ave', 'New York, NY 10016']"
580,Marta,931,4.0,$$$,40.7445882,-73.9847936,pizza,29 E 29th St,New York,10016,"['29 E 29th St', 'New York, NY 10016']"
581,Poco - NYC,1820,3.5,$$$,40.722524,-73.9829025,tapas,33 Avenue B,New York,10009,"['33 Avenue B', 'New York, NY 10009']"
582,Bird & Branch,358,4.5,$$,40.7603099,-73.99087,coffee,359 West 45th St,New York,10036,"['359 West 45th St', 'New York, NY 10036']"
583,Barcade,1066,4.0,$$,40.71204,-73.95113,bars,388 Union Ave,Brooklyn,11211,"['388 Union Ave', 'Brooklyn, NY 11211']"
584,Shake Shack,1388,4.0,$$,40.77902790518208,-73.95495587389705,burgers,154 E 86th St,New York,10028,"['154 E 86th St', 'New York, NY 10028']"
585,Banter,548,4.5,$$,40.72787,-74.0010999,breakfast_brunch,169 Sullivan St,New York,10012,"['169 Sullivan St', 'New York, NY 10012']"
586,St. Anselm,895,4.0,$$$,40.7143299,-73.95604,newamerican,355 Metropolitan Ave,Brooklyn,11211,"['355 Metropolitan Ave', 'Brooklyn, NY 11211']"
587,Loi Estiatorio,403,4.5,$$$,40.765385,-73.978002,greek,132 W 58th St,New York,10019,"['132 W 58th St', 'New York, NY 10019']"
588,Palma,788,4.0,$$$,40.73115,-74.00233,italian,28 Cornelia St,New York,10014,"['28 Cornelia St', 'New York, NY 10014']"
589,Oceanic Boil,661,4.5,$$,40.7498297,-73.8821356,cajun,84-20 37th Ave,Jackson Heights,11372,"['84-20 37th Ave', 'Jackson Heights, NY 11372']"
590,Peaches HotHouse,1315,4.0,$$,40.6833699737169,-73.9437798410654,southern,415 Tompkins Ave,Brooklyn,11216,"['415 Tompkins Ave', 'Brooklyn, NY 11216']"
591,Emily - West Village,828,4.0,$$,40.729330068469,-74.0038400073579,pizza,35 Downing St,New York,10014,"['35 Downing St', 'New York, NY 10014']"
592,The Capital Grille,858,4.0,$$$,40.75114,-73.97491,steak,155 E 42nd St,New York,10017,"['155 E 42nd St', 'New York, NY 10017']"
593,Enthaice Thai Kitchen,729,4.0,$$,40.7630889337809,-73.9213237166405,thai,33-20 31st Ave,Astoria,11106,"['33-20 31st Ave', 'Astoria, NY 11106']"
594,Rasa,790,4.0,$$,40.7327654,-73.9975674,malaysian,25 W 8th St,New York,10011,"['25 W 8th St', 'New York, NY 10011']"
595,Margon,768,4.0,$$,40.75787,-73.98398,cuban,136 W 46th St,New York,10036,"['136 W 46th St', 'New York, NY 10036']"
596,Dutch Kills,802,4.0,$$,40.747615,-73.940159,lounges,27-24 Jackson Ave,Long Island City,11101,"['27-24 Jackson Ave', 'Long Island City, NY 11101']"
597,The Grey Dog - Union Square,1114,4.0,$$,40.733828,-73.993052,coffee,90 University Pl,New York,10003,"['90 University Pl', 'New York, NY 10003']"
598,Win Son,600,4.0,$$,40.70747,-73.94339,taiwanese,159 Graham Ave,Brooklyn,11206,"['159 Graham Ave', 'Brooklyn, NY 11206']"
599,Pita Palace,282,5.0,$,40.7172335,-73.94504,mideastern,413 Graham Ave,Brooklyn,11211,"['413 Graham Ave', 'Brooklyn, NY 11211']"
600,The Winslow,599,4.5,$$,40.7327766418457,-73.9852142333984,pubs,243 E 14th St,New York,10003,"['243 E 14th St', 'New York, NY 10003']"
601,Tamarind,1027,4.0,$$$,40.71909,-74.00892,indpak,99 Hudson St,New York,10013,"['99 Hudson St', 'New York, NY 10013']"
602,Urbanspace,664,4.0,$$,40.75475032555806,-73.97603084140441,food_court,230 Park Ave,New York,10169,"['230 Park Ave', 'New York, NY 10169']"
603,Pause Cafe,463,4.5,$,40.72123,-73.98408,moroccan,3 Clinton St,New York,10002,"['3 Clinton St', 'New York, NY 10002']"
604,Levain Bakery,324,4.5,$$,40.726157,-73.9946634,bakeries,340 Lafayette,New York,10012,"['340 Lafayette', 'New York, NY 10012']"
605,Simple NYC,333,4.5,$$,40.71821,-73.99223,poke,109 Eldridge St,New York,10002,"['109 Eldridge St', 'New York, NY 10002']"
606,Chow House,502,4.5,$$,40.72915,-74.00072,szechuan,181 Bleecker St,New York,10012,"['181 Bleecker St', 'New York, NY 10012']"
607,Super Taste,623,4.0,$,40.715117,-73.9933339,chinese,26 Eldridge St,New York,10002,"['26 Eldridge St', 'New York, NY 10002']"
608,San Marzano Pasta Fresca,1350,4.0,$$,40.727966,-73.988382,italian,117 Second Ave,New York,10003,"['117 Second Ave', 'New York, NY 10003']"
609,The Kati Roll Company,1597,3.5,$,40.75269,-73.98466,indpak,49 W 39th St,New York,10018,"['49 W 39th St', 'New York, NY 10018']"
610,Kenka,1587,3.5,$$,40.72913,-73.988465,sushi,25 St Marks Pl,New York,10003,"['25 St Marks Pl', 'New York, NY 10003']"
611,Benito One,769,4.0,$$,40.7200188460948,-73.9969412164592,italian,174 Mulberry St,New York,10013,"['174 Mulberry St', 'New York, NY 10013']"
612,Davey's Ice Cream,546,4.0,$,40.7279493,-73.9852999,icecream,137 1st Ave,New York,10003,"['137 1st Ave', 'New York, NY 10003']"
613,Patsy's Pizzeria,576,4.5,$$,40.6818695,-73.976181,pizza,450 Dean St,Brooklyn,11217,"['450 Dean St', 'Brooklyn, NY 11217']"
614,Modern Love Brooklyn,609,4.0,$$,40.70983,-73.95109,vegan,317 Union Ave,Brooklyn,11211,"['317 Union Ave', 'Brooklyn, NY 11211']"
615,MarieBelle,579,4.0,$$$,40.7232107708636,-74.002450627852,chocolate,484 Broome St,New York,10013,"['484 Broome St', 'New York, NY 10013']"
616,Salinas,960,4.0,$$$$,40.7436999,-74.00314,spanish,136 9th Ave,New York,10011,"['136 9th Ave', 'New York, NY 10011']"
617,Taureau,590,4.5,$$$,40.724511,-74.005701,fondue,558 Broome St,New York,10013,"['558 Broome St', 'New York, NY 10013']"
618,Cafe Himalaya,646,4.0,$$,40.7232289034083,-73.9879441220901,himalayan,78 E 1st St,New York,10009,"['78 E 1st St', 'New York, NY 10009']"
619,One If By Land Two If By Sea,1481,3.5,$$$$,40.732498,-74.002595,newamerican,17 Barrow St,New York,10014,"['17 Barrow St', 'New York, NY 10014']"
620,Zutto Japanese American Pub,933,4.0,$$,40.71847,-74.00903,sushi,77 Hudson St,New York,10013,"['77 Hudson St', 'New York, NY 10013']"
621,Abiko Curry,915,4.0,$$,40.74721,-73.986192,japacurry,2 W 32nd St,New York,10001,"['2 W 32nd St', 'New York, NY 10001']"
622,Crave Fishbar,770,4.0,$$$,40.755136,-73.968683,seafood,945 2nd Ave,New York,10022,"['945 2nd Ave', 'New York, NY 10022']"
623,Agora Turkish Restaurant,641,4.5,$$,40.77492,-73.95412,turkish,1565 2nd Ave,New York,10028,"['1565 2nd Ave', 'New York, NY 10028']"
624,Sprinkles New York - Upper East Side,1005,4.0,$$,40.76328921577075,-73.96769890000003,bakeries,780 Lexington Ave,New York,10065,"['780 Lexington Ave', 'New York, NY 10065']"
625,Peacefood Cafe Downtown,774,4.0,$$,40.7332670924819,-73.9929751334153,vegan,41 E 11th St,New York,10003,"['41 E 11th St', 'New York, NY 10003']"
626,Casa Mono,1318,3.5,$$$,40.7359281440206,-73.9871550967319,spanish,52 Irving Pl,New York,10003,"['52 Irving Pl', 'New York, NY 10003']"
627,Franchia Vegan Cafe,984,4.0,$$,40.7474712051298,-73.9812423408763,korean,12 Park Ave,New York,10016,"['12 Park Ave', 'New York, NY 10016']"
628,Pippali,829,4.0,$$,40.74233,-73.98331,indpak,129 E 27th St,New York,10016,"['129 E 27th St', 'New York, NY 10016']"
629,Yoon Haeundae Galbi,593,4.5,$$$,40.74996750318778,-73.98443095513923,korean,8 W 36th St,New York,10018,"['8 W 36th St', 'New York, NY 10018']"
630,Times Square Diner,1022,4.0,$$,40.7614036889404,-73.9869685269328,tradamerican,807 8th Ave,New York,10019,"['807 8th Ave', 'New York, NY 10019']"
631,Nougatine at Jean-Georges,1184,4.0,$$$,40.76891,-73.98176,french,1 Central Park W,New York,10023,"['1 Central Park W', 'New York, NY 10023']"
632,Eggloo,909,4.0,$,40.7155497342652,-73.9993924610537,desserts,60 Mulberry St,New York,10013,"['60 Mulberry St', 'New York, NY 10013']"
633,Strip House - Downtown,1039,4.0,$$$$,40.73445,-73.99337,steak,13 E 12th St,New York,10003,"['13 E 12th St', 'New York, NY 10003']"
634,Keki Modern Cakes,424,4.5,$$,40.7468603,-73.984986,bakeries,315 5th Ave,New York,10016,"['315 5th Ave', 'New York, NY 10016']"
635,Noreetuh,534,4.0,$$$,40.727275,-73.985221,newamerican,128 1st Ave,New York,10009,"['128 1st Ave', 'New York, NY 10009']"
636,Yumpling,303,4.5,$$,40.7430199,-73.9538229,taiwanese,4911 Vernon Blvd,Long Island City,11101,"['4911 Vernon Blvd', 'Long Island City, NY 11101']"
637,The Jeffrey Craft Beer & Bites,703,4.0,$$,40.7611,-73.963,bars,311 E 60th St,New York,10022,"['311 E 60th St', 'New York, NY 10022']"
638,Riverpark,824,4.0,$$$,40.73927328386238,-73.97345768834332,newamerican,450 E 29th St,New York,10016,"['450 E 29th St', 'New York, NY 10016']"
639,230 Fifth Rooftop Bar,3943,3.0,$$$,40.7440395,-73.9881258,cocktailbars,230 5th Ave,New York,10001,"['230 5th Ave', '(corner 27th)', 'New York, NY 10001']"
640,Emily,856,4.0,$$,40.68351,-73.96643,tradamerican,919 Fulton St,Brooklyn,11238,"['919 Fulton St', 'Brooklyn, NY 11238']"
641,Baar Baar,1041,4.0,$$$,40.7244378855031,-73.9915524,gastropubs,13 E 1st St,New York,10003,"['13 E 1st St', 'New York, NY 10003']"
642,Socarrat Paella Bar - Chelsea,1229,4.0,$$$,40.7426956,-73.9995488,spanish,259 W 19th St,New York,10011,"['259 W 19th St', 'New York, NY 10011']"
643,Milkflower,713,4.5,$$,40.7628961,-73.9207081,pizza,3412 31st Ave,Astoria,11106,"['3412 31st Ave', 'Astoria, NY 11106']"
644,Boqueria,836,4.0,$$$,40.771522,-73.956073,tapasmallplates,1460 2nd Ave,New York,10075,"['1460 2nd Ave', 'New York, NY 10075']"
645,The Capital Grille,805,4.0,$$$,40.7607390928484,-73.9813780866211,steak,120 W 51st St,New York,10020,"['120 W 51st St', 'New York, NY 10020']"
646,Zabar's,1085,4.0,$$,40.784817,-73.979712,bakeries,2245 Broadway,New York,10024,"['2245 Broadway', 'New York, NY 10024']"
647,La Colombe Coffee,575,4.0,$$,40.728221,-73.993165,coffee,400 Lafayette St,New York,10003,"['400 Lafayette St', 'New York, NY 10003']"
648,Osamil,522,4.5,$$,40.74697,-73.9864,korean,5 West 31st St,New York,10001,"['5 West 31st St', 'New York, NY 10001']"
649,Dos Toros Taqueria,1341,4.0,$,40.7336815475083,-73.9897049423153,mexican,137 4th Ave,New York,10003,"['137 4th Ave', 'New York, NY 10003']"
650,Cha Cha Matcha,970,4.0,$$,40.720066,-73.996261,coffee,373 Broome St,New York,10013,"['373 Broome St', 'New York, NY 10013']"
651,Shake Shack,951,4.0,$$,40.715283,-74.014799,burgers,215 Murray St,New York,10282,"['215 Murray St', 'New York, NY 10282']"
652,Dhaba Indian Cuisine,1528,3.5,$$,40.742364,-73.982813,indpak,108 Lexington Ave,New York,10016,"['108 Lexington Ave', 'New York, NY 10016']"
653,Ladurée SoHo,1708,3.5,$$$,40.724329,-74.002508,tea,398 W Broadway,New York,10012,"['398 W Broadway', 'New York, NY 10012']"
654,Alice's Tea Cup Chapter II,1468,4.0,$$,40.76518,-73.96576,tea,156 E 64th St,New York,10065,"['156 E 64th St', 'New York, NY 10065']"
655,Mysttik Masaala,416,4.5,$,40.75932,-73.97209,foodtrucks,399 Park Ave,New York,10022,"['399 Park Ave', 'Corner of 54th street', 'New York, NY 10022']"
656,Ed's Lobster Bar,1039,4.0,$$$,40.71993072968719,-73.99901129999999,seafood,155 Grand St,New York,10013,"['155 Grand St', 'New York, NY 10013']"
657,Vesta,723,4.5,$$,40.76961,-73.92776,italian,21-02 30th Ave,Astoria,11102,"['21-02 30th Ave', 'Astoria, NY 11102']"
658,Imani Caribbean Kitchen & Bar,695,4.0,$$,40.689413,-73.970866,caribbean,271 Adelphi St,Brooklyn,11205,"['271 Adelphi St', 'Brooklyn, NY 11205']"
659,Kitchen 79,671,4.5,$$,40.747551,-73.8868866,thai,37-70 79th St,Jackson Heights,11372,"['37-70 79th St', 'Jackson Heights, NY 11372']"
660,Taci’s Beyti,797,4.5,$$,40.60956,-73.96209,turkish,1953 Coney Island Ave,Brooklyn,11223,"['1953 Coney Island Ave', 'Brooklyn, NY 11223']"
661,CONES - Artisanal Ice Cream,617,4.0,$$,40.7315227,-74.0032698,icecream,272 Bleecker St,New York,10014,"['272 Bleecker St', 'New York, NY 10014']"
662,Urban Backyard,230,4.5,$$,40.72077,-73.99646,coffee,180 Mulberry St,New York,10012,"['180 Mulberry St', 'New York, NY 10012']"
663,Giorgio's of Gramercy,781,4.0,$$$,40.7394209879325,-73.9885425567627,italian,27 E 21st St,New York,10010,"['27 E 21st St', 'New York, NY 10010']"
664,Great NY Noodle Town,1392,3.5,$,40.7150363828814,-73.9971172437072,cantonese,28 Bowery,New York,10013,"['28 Bowery', 'New York, NY 10013']"
665,City Vineyard,1047,4.0,$$,40.7205582,-74.0118093,wine_bars,233 West St,New York,10013,"['233 West St', 'New York, NY 10013']"
666,Ramen Misoya,965,4.0,$$,40.7285309,-73.988121,ramen,129 2nd Ave,New York,10003,"['129 2nd Ave', 'New York, NY 10003']"
667,The Greek,503,4.5,$$$,40.72403160851802,-74.01044800203925,greek,452 Washington St,New York,10013,"['452 Washington St', 'New York, NY 10013']"
668,East Harbor Seafood Palace ,730,4.0,$$,40.633425,-74.014425,dimsum,714 65th St,Brooklyn,11220,"['714 65th St', 'Brooklyn, NY 11220']"
669,Black Iron Burger,1036,4.0,$$,40.75427,-73.99031,burgers,245 W 38th St,New York,10018,"['245 W 38th St', 'New York, NY 10018']"
670,Sweet Afton,1106,4.0,$$,40.765352,-73.918983,bars,30-09 34th St,Astoria,11103,"['30-09 34th St', 'Astoria, NY 11103']"
671,Vite Vinosteria,636,4.5,$$,40.7629734277725,-73.92119564116,italian,31-05 34th St,Astoria,11106,"['31-05 34th St', 'Astoria, NY 11106']"
672,Galli,1004,4.0,$$,40.72161,-74.00127,italian,45 Mercer St,New York,10013,"['45 Mercer St', 'New York, NY 10013']"
673,Szechuan Mountain House,484,4.5,$$,40.72911,-73.98858,szechuan,23 St Marks Pl,New York,10003,"['23 St Marks Pl', 'New York, NY 10003']"
674,El Mate,329,4.5,$$,40.6749782203506,-73.9995224876405,brazilian,550 Court St,Brooklyn,11231,"['550 Court St', 'Brooklyn, NY 11231']"
675,Fig & Olive,1407,3.5,$$$,40.74067,-74.00708,mediterranean,420 W 13th St,New York,10014,"['420 W 13th St', 'New York, NY 10014']"
676,Saiguette,667,4.5,$$,40.79902,-73.96281,vietnamese,935 Columbus Ave,New York,10025,"['935 Columbus Ave', 'New York, NY 10025']"
677,Double Zero,575,4.5,$$,40.7261288,-73.9896645,pizza,65 2nd Ave,New York,10003,"['65 2nd Ave', 'New York, NY 10003']"
678,The Penrose,1323,4.0,$$,40.775427,-73.953115,newamerican,1590 2nd Ave,New York,10028,"['1590 2nd Ave', 'New York, NY 10028']"
679,Joseph Leonard,691,4.0,$$,40.7336021670705,-74.001675412843,newamerican,170 Waverly Pl,New York,10014,"['170 Waverly Pl', 'New York, NY 10014']"
680,Danji,1041,4.0,$$,40.764,-73.98686,korean,346 W 52nd St,New York,10019,"['346 W 52nd St', 'New York, NY 10019']"
681,&pizza - NoMad,484,4.5,$$,40.74520457937066,-73.98823142051697,pizza,15 W 28th St,New York,10001,"['15 W 28th St', 'New York, NY 10001']"
682,Jack's Wife Freda,903,4.0,$$,40.729826,-74.003516,mediterranean,50 Carmine St,New York,10014,"['50 Carmine St', 'New York, NY 10014']"
683,Ivan Ramen,1411,3.5,$$,40.72058,-73.98454,ramen,25 Clinton St,New York,10002,"['25 Clinton St', 'New York, NY 10002']"
684,Joya,1337,3.5,$$,40.686672,-73.993544,thai,215 Court St,Brooklyn,11201,"['215 Court St', 'Brooklyn, NY 11201']"
685,Le Botaniste,428,4.5,$$,40.7649986274526,-73.9659830279587,wine_bars,833 Lexington Ave,New York,10065,"['833 Lexington Ave', 'New York, NY 10065']"
686,Lido,1085,4.0,$$,40.8049797781916,-73.9548260014624,italian,2168 Frederick Douglass Blvd,New York,10026,"['2168 Frederick Douglass Blvd', 'New York, NY 10026']"
687,Nami Nori,480,4.5,$$$,40.730284,-74.003212,sushi,33 Carmine St,New York,10014,"['33 Carmine St', 'New York, NY 10014']"
688,Baker & Co,688,4.0,$$,40.7313423,-74.0028996,italian,259 Bleecker St,New York,10014,"['259 Bleecker St', 'New York, NY 10014']"
689,Oasis,650,4.0,$,40.71831756457833,-73.95754161165478,mideastern,168 Bedford Ave,Brooklyn,11249,"['168 Bedford Ave', 'Brooklyn, NY 11249']"
690,Junoon,1575,3.5,$$$,40.743193,-73.990838,indpak,19 W 24th St,New York,10010,"['19 W 24th St', 'New York, NY 10010']"
691,Juice Vitality,209,5.0,$,40.72966,-73.9834,juicebars,192 1st Ave,New York,10009,"['192 1st Ave', 'New York, NY 10009']"
692,Astoria Seafood,808,4.0,$$,40.754,-73.9298699,seafood,37-10 33rd St,Long Island City,11101,"['37-10 33rd St', 'Long Island City, NY 11101']"
693,Loring Place,472,4.5,$$$,40.73293764919451,-73.99758608256435,desserts,21 W 8th St,New York,10011,"['21 W 8th St', 'New York, NY 10011']"
694,Briciola,912,4.0,$$,40.7637997047278,-73.9880919456482,italian,370 W 51st St,New York,10019,"['370 W 51st St', 'New York, NY 10019']"
695,Trattoria Dell'Arte,1053,4.0,$$$,40.76545990643915,-73.98053136970677,italian,900 7th Ave,New York,10019,"['900 7th Ave', 'New York, NY 10019']"
696,Chimu Bistro,831,4.0,$$,40.714903,-73.95144,steak,482 Union Ave,Brooklyn,11211,"['482 Union Ave', 'Brooklyn, NY 11211']"
697,Da Claudio,550,4.0,$$,40.71087,-74.00753,italian,21 Ann St,New York,10038,"['21 Ann St', 'New York, NY 10038']"
698,The Press Lounge,1129,4.0,$$$,40.76452,-73.99586,lounges,653 11th Ave,New York,10036,"['653 11th Ave', 'Fl 16', 'New York, NY 10036']"
699,DiWine,789,4.0,$$,40.76087,-73.91557,newamerican,41-15 31st Ave,Astoria,11103,"['41-15 31st Ave', 'Astoria, NY 11103']"
700,Okonomi,476,4.5,$$,40.712622,-73.9487843,japanese,150 Ainslie St,Brooklyn,11211,"['150 Ainslie St', 'Brooklyn, NY 11211']"
701,Rex,587,4.5,$,40.768818,-73.988525,coffee,864 10th Ave,New York,10019,"['864 10th Ave', 'New York, NY 10019']"
702,Delmonico's,1061,4.0,$$$$,40.705028,-74.010256,steak,56 Beaver St,New York,10004,"['56 Beaver St', 'New York, NY 10004']"
703,Vinnie's Pizzeria,712,4.0,$,40.7189,-73.956843,pizza,148 Bedford Ave,Brooklyn,11211,"['148 Bedford Ave', 'Brooklyn, NY 11211']"
704,Hanco's,706,4.0,$,40.6870318621828,-73.9904292380982,vietnamese,134 Smith St,Brooklyn,11201,"['134 Smith St', 'Brooklyn, NY 11201']"
705,Watawa Sushi,929,4.0,$$,40.774959,-73.9095,sushi,33-10 Ditmars Blvd,Astoria,11105,"['33-10 Ditmars Blvd', 'Astoria, NY 11105']"
706,Verde on Smith,759,4.0,$$,40.684437,-73.992234,italian,216 Smith St,Brooklyn,11201,"['216 Smith St', 'Brooklyn, NY 11201']"
707,LuAnne's Wild Ginger All-Asian Vegan,664,4.0,$$,40.7204631,-73.9964956,vegan,380 Broome St,New York,10013,"['380 Broome St', 'New York, NY 10013']"
708,Mah-Ze-Dahr Bakery,390,4.5,$$,40.73503,-74.00002,bakeries,28 Greenwich Ave,New York,10011,"['28 Greenwich Ave', 'New York, NY 10011']"
709,District Tap House,840,4.0,$$,40.75409,-73.99039,sportsbars,246 W 38th St,New York,10018,"['246 W 38th St', 'New York, NY 10018']"
710,Allora Ristorante,663,4.5,$$$,40.75433,-73.97277,italian,145 E 47th St,New York,10017,"['145 E 47th St', 'New York, NY 10017']"
711,Bodhi Kosher Vegetarian Restaurant,453,4.5,$$,40.71641,-73.99931,vegan,77 Mulberry St,New York,10013,"['77 Mulberry St', 'New York, NY 10013']"
712,Tiger Sugar,517,4.0,$,40.717891007822274,-73.99977985007176,bubbletea,197 Canal St,New York,10013,"['197 Canal St', 'New York, NY 10013']"
713,Curry-Ya,738,4.0,$$,40.72924,-73.9858,japanese,218 E 10th St,New York,10003,"['218 E 10th St', 'New York, NY 10003']"
714,Bite,633,4.0,$$,40.733163,-73.986158,sandwiches,211 E 14th St,New York,10003,"['211 E 14th St', 'New York, NY 10003']"
715,Ess-A-Bagel,914,4.0,$,40.7342019611776,-73.9801854769702,bagels,324 1st Ave,New York,10009,"['324 1st Ave', 'New York, NY 10009']"
716,Buenos Aires Restaurant,611,4.0,$$$,40.7253150939941,-73.983039855957,argentine,513 E 6th St,New York,10009,"['513 E 6th St', 'New York, NY 10009']"
717,Al Di La Trattoria,916,4.0,$$$,40.675332643247,-73.981340475038,italian,248 5th Ave,Brooklyn,11215,"['248 5th Ave', 'Brooklyn, NY 11215']"
718,Haswell Green's,427,4.5,$$,40.76301,-73.98416,newamerican,240 W 52nd St,New York,10019,"['240 W 52nd St', 'New York, NY 10019']"
719,Cheese Grille,601,4.0,$$,40.7219115,-73.9886709,tradamerican,188 Allen St,New York,10002,"['188 Allen St', 'New York, NY 10002']"
720,Beatnic - Flatiron,808,4.0,$$,40.7418636,-73.9929947,salad,60 W 22nd St,New York,10010,"['60 W 22nd St', 'New York, NY 10010']"
721,Steve's Authentic Key Lime Pies,465,4.5,$$,40.6777599765016,-74.0180665132931,bakeries,185 Van Dyke St,Brooklyn,11231,"['185 Van Dyke St', 'Brooklyn, NY 11231']"
722,Hi-Collar,686,4.0,$$,40.729564,-73.98786,japanese,231 E 9th St,New York,10003,"['231 E 9th St', 'New York, NY 10003']"
723,Klong,1156,4.0,$$,40.729507,-73.989181,thai,7 St Marks Pl,New York,10003,"['7 St Marks Pl', 'New York, NY 10003']"
724,Extra Virgin,1319,3.5,$$,40.7353962496717,-74.0031888223197,seafood,259 W 4th St,New York,10014,"['259 W 4th St', 'New York, NY 10014']"
725,Estiatorio Milos - Midtown New York,973,4.0,$$$$,40.76375719704591,-73.97883311779108,seafood,125 W 55th St,New York,10019,"['125 W 55th St', 'New York, NY 10019']"
726,Spice Symphony,564,4.5,$$,40.7558937072754,-73.9715347290039,chinese,150 E 50th St,New York,10022,"['150 E 50th St', 'New York, NY 10022']"
727,Peacefood Cafe,1376,4.0,$$,40.785326,-73.97713,vegan,460 Amsterdam Ave,New York,10024,"['460 Amsterdam Ave', 'New York, NY 10024']"
728,Stone Park Cafe,954,4.0,$$,40.67297,-73.98332,newamerican,324 5th Ave,Brooklyn,11215,"['324 5th Ave', 'Brooklyn, NY 11215']"
729,Sorriso Italian Pork Store,365,4.5,$,40.7621401,-73.9116109,meats,4416 30th Ave,Astoria,11103,"['4416 30th Ave', 'Astoria, NY 11103']"
730,Corner Bistro,1565,3.5,$$,40.738045638942125,-74.0037457,tradamerican,331 W 4th St,New York,10014,"['331 W 4th St', 'New York, NY 10014']"
731,Totto Ramen - Midtown East,1221,4.0,$$,40.756155,-73.968141,ramen,248 E 52nd St,New York,10022,"['248 E 52nd St', 'New York, NY 10022']"
